"CityId","CountryID","RegionID","City","Latitude","Longitude","TimeZone","DmaId","Code"
27239,254,124,"Gray Mountain","35.8756","-111.412","-07:00",753,"GMOU"
35786,254,148,"Rapelje","45.9932","-109.288","-07:00",756,"RAPE"
4354,122,2329,"Tamana","32.917","130.567","+09:00",,"TAMA"
13343,254,144,"Croswell","43.2651","-82.6467","-05:00",505,"CROS"
39829,254,146,"Vardaman","33.9472","-89.1968","-06:00",673,"VARD"
39933,254,144,"Vicksburg","42.1149","-85.4789","-05:00",563,"VICK"
21609,254,137,"Bryant","41.9723","-90.3407","-06:00",682,"BRYA"
29400,254,134,"Kellogg","47.7187","-116.088","-08:00",881,"KELL"
38484,254,152,"Stockton","40.4365","-74.9753","-05:00",501,"STOC"
7528,254,127,"Akron","40.1266","-103.261","-07:00",751,"AKRO"
12187,14,1,"Cheltenham","-37.969","145.048","+10:00",,"CHEL"
40490,254,172,"Websterville","44.1967","-72.5027","-05:00",523,"WEBS"
28832,254,146,"Independence","34.705","-89.8097","-06:00",640,"INDE"
36648,254,169,"Rupert","37.948","-80.6919","-05:00",559,"RUPE"
39908,254,156,"Verona","46.3698","-98.0972","-06:00",724,"VERO"
18220,254,158,"Purcell","34.988","-97.4962","-06:00",650,"PURC"
31261,254,156,"Mantador","46.1542","-96.9488","-06:00",724,"MANT"
39377,254,141,"Trevett","43.8985","-69.6751","-05:00",500,"TREV"
15641,254,135,"Palestine","39.0088","-87.6216","-06:00",581,"PALE"
27192,254,170,"Grantsburg","45.7599","-92.6867","-06:00",613,"GRAN"
37184,254,137,"Schaller","42.5179","-95.2694","-06:00",624,"SCHA"
18642,122,2372,"Ginoza","26.4932","127.967","+09:00",,"GINZ"
37871,254,141,"Smyrna Mills","46.2367","-68.3001","-05:00",552,"SMIZ"
17009,271,5063,"Nis","43.317","21.9","+01:00",,"NIS"
40061,254,162,"Wadmalaw Island","32.6609","-80.1771","-05:00",519,"WISL"
41270,254,148,"Winnett","47.1145","-108.252","-07:00",756,"WINN"
25025,254,167,"Edinburg","38.8471","-78.6319","-05:00",511,"EDIN"
26370,254,157,"Friendship","38.6978","-83.0939","-05:00",564,"FRIE"
27180,254,131,"Grant","27.9025","-80.5614","-05:00",534,"GRAN"
24161,254,138,"Delia","39.2851","-95.9543","-06:00",605,"DELI"
25552,254,136,"Evanston","38.023","-86.832","-06:00",649,"EVAS"
30219,254,138,"Lecompton","38.9741","-95.4273","-06:00",616,"LECO"
17194,254,160,"Harrison City","40.3834","-79.6667","-05:00",508,"HCIY"
15964,24,5306,"Aarschot","50.983","4.833","+01:00",,"AARS"
18556,254,144,"Champion","46.4837","-87.8524","-05:00",553,"CHAM"
28741,254,169,"Hurricane","38.3842","-81.9872","-05:00",564,"HURR"
4047,118,2233,"Raanana","32.181","34.867","+02:00",,"RAAN"
20595,254,146,"Benton","32.8125","-90.2871","-06:00",718,"BENO"
34034,254,169,"Old Fields","39.1545","-78.9527","-05:00",511,"OFIE"
39332,254,136,"Trafalgar","39.3709","-86.1938","-05:00",527,"TRAF"
8187,254,135,"Carlyle","38.5905","-89.3709","-06:00",609,"CARL"
24918,254,141,"East Winthrop","44.3226","-69.9006","-05:00",500,"EWIN"
33822,254,135,"O Fallon","38.6074","-89.8929","-06:00",609,"OFAL"
37832,254,135,"Smithfield","40.4895","-90.2827","-06:00",675,"SMIF"
23934,254,128,"Danielson","41.7938","-71.8615","-05:00",533,"DANI"
28291,254,145,"Hines","47.7615","-94.6741","-06:00",613,"HINE"
37027,254,158,"Sand Springs","36.1933","-96.1589","-06:00",671,"SSPR"
9363,254,147,"Kahoka","40.4336","-91.756","-06:00",717,"KAHO"
10607,254,160,"Laporte","41.4239","-76.4944","-05:00",577,"LAPO"
29001,254,135,"Ivesdale","39.9526","-88.425","-06:00",648,"IVES"
9102,254,144,"Marquette","46.5095","-87.3836","-05:00",553,"MARQ"
26301,254,145,"Freeborn","43.8042","-93.5876","-06:00",611,"FREB"
13714,254,170,"Menasha","44.2033","-88.3113","-06:00",658,"MENA"
28632,254,135,"Hudson","40.6199","-88.9844","-06:00",675,"HUDS"
39938,254,148,"Victor","46.4107","-114.258","-07:00",762,"VICT"
27405,254,169,"Grimms Landing","38.6778","-81.9489","-05:00",564,"GLAN"
34055,254,164,"Oldfort","35.043","-84.6432","-05:00",575,"OLDF"
36597,254,137,"Royal","43.0463","-95.2692","-06:00",624,"ROYA"
3632,59,1434,"Liberia","10.633","-85.433","-06:00",,"LIBE"
29105,254,127,"Jefferson","39.3148","-105.78","-07:00",751,"JEFF"
35190,254,149,"Plymouth","40.3062","-97.0291","-06:00",722,"PLYM"
36397,254,154,"Rodman","43.8495","-75.863","-05:00",549,"RODM"
13576,254,131,"Apopka","28.6954","-81.5204","-05:00",534,"APOP"
18350,254,152,"Windsor","40.2367","-74.5876","-05:00",504,"WIND"
29467,254,126,"Kentfield","37.9736","-122.531","-08:00",807,"KENT"
37111,254,141,"Sargentville","44.3295","-68.7107","-05:00",537,"SARG"
41441,254,138,"Woodston","39.438","-99.1009","-06:00",678,"WOOD"
5555,41,1283,"Stung Treng","13.517","105.967","+07:00",,"STRE"
33568,254,125,"Norman","34.4592","-93.6571","-06:00",693,"NORM"
37901,254,154,"Sodus","43.2201","-77.0432","-05:00",538,"SODU"
35372,254,147,"Portland","38.7662","-91.6923","-06:00",604,"PORL"
9742,254,156,"Minot","48.2073","-101.327","-06:00",687,"MINO"
19408,254,131,"Altha","30.5189","-85.2134","-06:00",656,"ALTH"
19647,254,138,"Arcadia","37.6277","-94.7013","-06:00",603,"ARCA"
22058,254,136,"Cannelburg","38.6949","-86.968","-05:00",581,"CANE"
20946,254,136,"Bloomingdale","39.8468","-87.2662","-05:00",581,"BLOI"
22841,254,132,"Clarkdale","33.8274","-84.6568","-05:00",524,"CLAD"
39311,254,122,"Town Creek","34.6446","-87.4359","-06:00",691,"TCRE"
8166,254,135,"Aledo","41.1928","-90.7165","-06:00",682,"ALED"
35973,254,146,"Rena Lara","34.1508","-90.7804","-06:00",640,"RLAR"
17640,195,3439,"puerto galera","13.5","120.95","+08:00",,"PGAL"
33314,254,157,"New Richmond","38.9542","-84.2299","-05:00",515,"NRIC"
7610,254,128,"Enfield","41.9802","-72.5728","-05:00",533,"ENFI"
12904,254,154,"Rego Park","40.7254","-73.8614","-05:00",501,"RPAR"
36924,254,166,"Salem","39.9788","-111.554","-07:00",770,"SALE"
15818,254,126,"San Marino","34.1351","-118.129","-08:00",803,"SMAI"
24762,254,165,"Early","31.753","-98.9262","-06:00",662,"EARL"
34721,254,153,"Pena Blanca","35.6645","-106.386","-07:00",790,"PBLA"
34165,254,165,"Orange Grove","27.9528","-98.0731","-06:00",600,"OGRO"
39319,254,155,"Townsville","36.4944","-78.4239","-05:00",560,"TOWN"
38724,254,126,"Sunland","34.2627","-118.316","-08:00",803,"SUNL"
27439,254,151,"Groveton","44.6154","-71.467","-05:00",500,"GROV"
28064,254,145,"Henderson","44.5464","-93.9537","-06:00",613,"HENE"
36617,254,154,"Ruby","42.0181","-74.0155","-05:00",501,"RUBY"
10134,254,154,"Fredonia","42.4124","-79.3256","-05:00",514,"FRED"
21411,254,125,"Brinkley","34.8485","-91.2113","-06:00",693,"BRIN"
27064,254,158,"Gotebo","35.071","-98.8855","-06:00",650,"GOTE"
17708,91,1913,"Freising","48.4","11.733","+01:00",,"FREI"
5494,120,2381,"Mount Carey","18.4","-77.95","-05:00",,"MCAR"
30109,254,139,"Latonia","38.9834","-84.4878","-05:00",515,"LATO"
33529,254,131,"Nobleton","28.6193","-82.2459","-05:00",539,"NOBL"
25575,254,144,"Ewen","46.5575","-89.3954","-05:00",553,"EWEN"
36685,254,164,"Russellville","36.2465","-83.1838","-05:00",557,"RUSS"
4541,179,3059,"Jalapa","13.917","-86.133","-06:00",,"JALA"
8984,254,141,"Bangor","44.8267","-68.8047","-05:00",537,"BANG"
11147,254,165,"Livingston","30.7078","-94.8036","-06:00",618,"LIVI"
39794,254,165,"Van Horn","31.0833","-104.815","-06:00",765,"VHOR"
8040,254,137,"Cherokee","42.7282","-95.5804","-06:00",624,"CHER"
24779,254,165,"East Bernard","29.4737","-96.1754","-06:00",618,"EBER"
31851,254,170,"Medina","44.3344","-88.6383","-06:00",658,"MEDI"
11471,254,168,"Bellingham","48.7273","-122.472","-08:00",819,"BELL"
16458,175,2979,"Klimmen","50.883","5.883","+01:00",,"KLIM"
21399,254,170,"Brill","45.6026","-91.6718","-06:00",613,"BRIZ"
5772,243,4056,"Nestor","10.517","-61.15","-04:00",,"NEST"
8688,254,139,"Pikeville","37.5072","-82.5159","-05:00",564,"PIKE"
3699,91,1918,"Krefeld","51.333","6.567","+01:00",,"KREF"
4532,181,2953,"Kaduna","10.523","7.44","+01:00",,"KADU"
38232,254,149,"Springfield","41.0576","-96.1628","-06:00",652,"SPRI"
26025,254,138,"Ford","37.6165","-99.7893","-06:00",678,"FORD"
31362,254,162,"Marietta","35.0673","-82.5403","-05:00",567,"MARE"
33588,254,162,"North","33.6281","-81.054","-05:00",546,"NORT"
32132,254,151,"Milan","44.6084","-71.1109","-05:00",500,"MILA"
41102,254,144,"Williamsburg","44.7754","-85.3979","-05:00",540,"WILI"
41910,82,1809,"Le Mans","48","0.2","+01:00",,"LMAN"
15822,43,36,"Edson","53.583","-116.417","-07:00",,"EDSO"
24512,254,163,"Draper","43.9402","-100.479","-06:00",725,"DRAE"
40948,254,132,"White Plains","33.4648","-83.0827","-05:00",524,"WPLA"
19810,254,170,"Ashippun","43.2117","-88.5161","-06:00",617,"ASHI"
7365,254,126,"Pittsburg","38.0121","-121.92","-08:00",807,"PITT"
19779,254,156,"Arthur","47.1081","-97.1969","-06:00",724,"ARTH"
35233,254,136,"Poland","39.4501","-86.975","-05:00",581,"POLA"
25010,254,125,"Edgemont","35.659","-92.1866","-06:00",693,"EDGE"
29264,254,152,"Juliustown","40.0134","-74.6693","-05:00",504,"JULI"
33414,254,125,"Newhope","34.2209","-93.854","-06:00",693,"NEWH"
38553,254,167,"Strasburg","39.0343","-78.3636","-05:00",511,"STRA"
35666,254,144,"Quinnesec","45.8002","-87.9855","-06:00",553,"QUIE"
9552,254,148,"Great Falls","47.4838","-111.29","-07:00",755,"GFAL"
9975,254,152,"South Plainfield","40.5745","-74.4149","-05:00",501,"SPLI"
26385,254,145,"Frontenac","44.4954","-92.3696","-06:00",613,"FRON"
40992,254,139,"Whitesville","37.6489","-86.8935","-06:00",649,"WHIE"
10909,254,164,"Maryville","35.7272","-83.9608","-05:00",557,"MARY"
24670,254,140,"Dupont","30.9294","-91.9479","-06:00",644,"DUPO"
37267,254,125,"Scranton","35.3264","-93.5431","-06:00",670,"SCRA"
28110,254,159,"Hereford","44.6096","-118.03","-08:00",820,"HERE"
21436,254,167,"Broad Run","38.8381","-77.6935","-05:00",511,"BRUN"
10574,254,160,"Coraopolis","40.5042","-80.1934","-05:00",508,"CORA"
36416,254,127,"Roggen","40.249","-104.347","-07:00",751,"ROGG"
3449,43,38,"Brandon","49.833","-99.95","-06:00",,"BRAN"
20973,254,157,"Blue Creek","38.7625","-83.3313","-05:00",515,"BCRE"
29432,254,155,"Kenly","35.6072","-78.1393","-05:00",560,"KENL"
17480,254,144,"Columbiaville","43.1583","-83.387","-05:00",505,"COLU"
24820,254,148,"East Glacier Park","48.7064","-113.592","-07:00",755,"EGPA"
11722,254,171,"Rawlins","41.7532","-107.372","-07:00",751,"RAWL"
17815,254,132,"Grayson","33.8909","-83.9601","-05:00",524,"GRAY"
22600,254,167,"Check","37.0318","-80.2402","-05:00",573,"CHEC"
8410,254,136,"Lawrenceburg","39.1597","-84.8764","-05:00",515,"LAWR"
34216,254,158,"Orlando","36.1339","-97.4439","-06:00",650,"ORLA"
12695,198,3312,"Elvas","38.883","-7.167","+00:00",,"ELVA"
20831,254,144,"Bitely","43.7473","-85.8756","-05:00",563,"BITE"
41483,254,147,"Worthington","40.424","-92.7678","-06:00",631,"WORT"
15896,24,1129,"Mortsel","51.167","4.467","+01:00",,"MORT"
34705,254,170,"Pelican Lake","45.5084","-89.2113","-06:00",705,"PLAK"
34807,254,147,"Perry","39.4063","-91.6511","-06:00",717,"PERR"
36259,254,136,"Roanoke","40.9653","-85.3498","-05:00",509,"ROAN"
8865,254,143,"Needham","42.275","-71.2465","-05:00",506,"NEED"
33936,254,159,"Oceanside","45.4602","-123.966","-08:00",820,"OCEA"
40152,254,169,"Wallace","39.4093","-80.4844","-05:00",598,"WALA"
40897,254,146,"Wheeler","34.5803","-88.6076","-06:00",673,"WHEE"
19752,254,137,"Arnolds Park","43.3555","-95.1355","-06:00",624,"APAR"
41908,224,3686,"Sishen","-27.783","22.983","+02:00",,"SISH"
18598,254,153,"Lovington","32.9094","-103.48","-07:00",790,"LOVN"
27702,254,139,"Hanson","37.4483","-87.4594","-06:00",649,"HANS"
32646,254,128,"Morris","41.6914","-73.1809","-05:00",533,"MORR"
6791,254,123,"Bethel","60.9862","-162.281","-09:00",,"BETH"
14937,233,3998,"Boden","65.833","21.7","+01:00",,"BODE"
30702,254,125,"London","35.3418","-93.2374","-06:00",693,"LOND"
7813,254,131,"Tampa","27.9733","-82.4717","-05:00",539,"TAMP"
26256,254,165,"Franklin","31.0654","-96.4194","-06:00",625,"FRAN"
31934,254,156,"Menoken","46.8954","-100.519","-06:00",687,"MENO"
7082,254,126,"Atascadero","35.4689","-120.67","-08:00",855,"ATAS"
18107,254,157,"Rockbridge","39.5376","-82.5737","-05:00",535,"ROCK"
41964,254,157,"Gahanna","40.019","-82.879","-05:00",535,"GAHA"
17179,254,144,"Rapid River","45.9786","-86.7702","-05:00",553,"RRIV"
33111,254,165,"Nemo","32.2852","-97.647","-06:00",623,"NEMO"
37409,254,131,"Seville","29.3231","-81.4988","-05:00",534,"SEVI"
11623,254,170,"Tomah","44.0237","-90.4921","-06:00",702,"TOMA"
14587,234,4029,"Biel","47.167","7.25","+01:00",,"BIEL"
15816,254,132,"Oakwood","34.2329","-83.8949","-05:00",524,"OAKW"
24416,254,145,"Donnelly","45.7158","-96.1288","-06:00",613,"DONN"
29031,254,122,"Jacksons Gap","32.9008","-85.836","-06:00",698,"JGAP"
29916,254,152,"Lake Hiawatha","40.8818","-74.3827","-05:00",501,"LHIA"
4552,179,3063,"Puerto Cabezas","14.033","-83.383","-06:00",,"PCAB"
6589,175,2983,"Utrecht","52.083","5.133","+01:00",,"UTRE"
16244,233,3993,"Oskarshamn","57.267","16.433","+01:00",,"OSKA"
37997,254,143,"South Easton","42.0178","-71.0994","-05:00",521,"SEAS"
41753,221,3796,"Piran","45.533","13.567","+01:00",,"PIRA"
17111,254,155,"Lewisville","36.091","-80.4512","-05:00",518,"LEWI"
23780,254,164,"Cumberland Furnace","36.3049","-87.4151","-06:00",659,"CFUR"
29213,254,169,"Jolo","37.3313","-81.8345","-05:00",559,"JOLO"
37912,254,147,"Solo","37.1652","-91.9454","-06:00",619,"SOLO"
41782,115,2206,"Lar","27.682","54.339","+03:50",,"LAR"
5012,253,5390,"Stirling","56.119","-3.938","+00:00",,"STIR"
23715,254,146,"Crowder","34.1738","-90.1345","-06:00",640,"CROW"
31515,254,127,"Masonville","40.4875","-105.211","-07:00",751,"MASO"
9454,254,146,"Bay Saint. Louis","30.309","-89.33","-06:00",746,"BSLU"
12234,254,170,"Lodi","43.3172","-89.571","-06:00",669,"LODI"
17950,254,154,"Long Island City","40.7457","-73.9381","-05:00",501,"LICI"
9700,254,155,"Yadkinville","36.1267","-80.6582","-05:00",518,"YADK"
36487,254,154,"Roseboom","42.7882","-74.7426","-05:00",526,"ROSB"
35742,254,126,"Rancho Mirage","33.7825","-116.414","-08:00",804,"RMIR"
17467,254,126,"Camino","38.7573","-120.678","-08:00",862,"CAMI"
19468,254,136,"Ambia","40.466","-87.4631","-05:00",527,"AMBI"
32535,254,137,"Montour","41.947","-92.7092","-06:00",637,"MONU"
13531,254,135,"Herrin","37.8118","-89.0053","-06:00",632,"HERR"
25050,254,147,"Edwards","38.1656","-93.1481","-06:00",619,"EDWA"
35008,254,162,"Pineland","32.5764","-81.1874","-05:00",507,"PINL"
9531,254,146,"Waynesboro","31.666","-88.7149","-06:00",710,"WAYN"
27144,254,157,"Grand River","41.7451","-81.2852","-05:00",510,"GRIV"
28823,254,137,"Imogene","40.8582","-95.442","-06:00",652,"IMOG"
3856,82,1793,"Bayonne","43.483","-1.483","+01:00",,"BAYO"
9790,254,149,"Fremont","41.4628","-96.5216","-06:00",652,"FREM"
10525,254,159,"Roseburg","43.2103","-123.429","-08:00",801,"ROSE"
12222,254,170,"Mount Horeb","42.9652","-89.7347","-06:00",669,"MHOR"
7757,254,131,"Mayo","29.9619","-83.1869","-05:00",530,"MAYO"
8295,254,135,"Oquawka","40.9421","-90.8777","-06:00",682,"OQUA"
27139,254,137,"Grand Mound","41.8087","-90.6321","-06:00",682,"GMOU"
17986,43,37,"Calabogie","45.3","-76.717","-05:00",,"CALA"
40884,254,126,"Wheatland","39.0463","-121.406","-08:00",862,"WHEA"
10439,254,158,"Medford","36.8562","-97.6932","-06:00",650,"MEDF"
21813,254,154,"Buskirk","42.973","-73.4552","-05:00",532,"BUSK"
39137,254,143,"Three Rivers","42.1755","-72.3784","-05:00",543,"TRIV"
16598,14,6,"Harvey","-33.083","115.9","+08:00",,"HARV"
20226,254,138,"Bartlett","37.0603","-95.2132","-06:00",603,"BART"
24868,254,131,"East Palatka","29.6637","-81.5622","-05:00",561,"EPAL"
38760,254,149,"Sutherland","41.1714","-101.185","-06:00",740,"SUTH"
24647,254,135,"Dunlap","40.8455","-89.6704","-06:00",675,"DUNL"
24901,254,143,"East Taunton","41.8686","-71.014","-05:00",521,"ETAU"
30133,254,137,"Laurens","42.8217","-94.855","-06:00",679,"LAUR"
34944,254,154,"Pike","42.5554","-78.1542","-05:00",514,"PIKE"
11214,254,165,"Raymondville","26.5112","-97.8502","-06:00",636,"RAYM"
14293,234,4047,"Yverdon","46.783","6.65","+01:00",,"YVER"
17320,43,37,"Dunnville","42.9","-79.617","-05:00",,"DUNN"
40937,254,139,"White Mills","37.5317","-86.0368","-05:00",529,"WMIL"
4262,122,2350,"Miyazaki","31.9","131.433","+09:00",,"MIYA"
16155,254,168,"Clear Lake","48.464","-122.233","-08:00",819,"CLAK"
34098,254,160,"Olyphant","41.4511","-75.5787","-05:00",577,"OLYP"
33304,254,159,"New Pine Creek","42.0537","-120.238","-08:00",813,"NPCR"
6886,254,122,"Marion","32.6685","-87.3424","-06:00",698,"MARI"
10472,254,158,"Watonga","35.8572","-98.4171","-06:00",650,"WATO"
17845,254,147,"Sullivan","38.2643","-91.1348","-06:00",609,"SULL"
41260,254,147,"Winigan","40.0421","-92.9315","-06:00",631,"WINI"
22996,254,122,"Clinton","32.9138","-87.9928","-06:00",630,"CLIN"
24092,254,134,"Declo","42.5399","-113.622","-07:00",760,"DECL"
25837,254,146,"Fernwood","31.1804","-90.4473","-06:00",718,"FERN"
15740,254,141,"North Waterboro","43.6379","-70.7469","-05:00",500,"NWAT"
17953,254,137,"Gravity","40.8088","-94.7512","-06:00",679,"GRAI"
22457,254,139,"Central City","37.3137","-87.1024","-06:00",649,"CCIZ"
10119,254,154,"Cortland","42.5863","-76.1831","-05:00",555,"CORT"
16553,49,1336,"Lianyungang","34.6","119.159","+08:00",,"LIAN"
42115,143,2540,"Virbalis","54.63","22.82","+02:00",,"VIRB"
24299,254,147,"Diamond","37.0097","-94.3154","-06:00",603,"DIAM"
28342,254,132,"Hogansville","33.1601","-84.9368","-05:00",524,"HOGA"
33980,254,145,"Ogema","47.1079","-96.0008","-06:00",724,"OGEM"
10185,254,154,"Newcomb","44.0335","-74.0849","-05:00",523,"NEWC"
14766,91,1912,"Neuenbürg","53.383","7.95","+01:00",,"NEUE"
34132,254,125,"Onia","35.944","-92.3325","-06:00",693,"ONIA"
18807,178,4706,"Albany","-36.717","174.7","+12:00",,"ALBA"
23542,254,122,"Cowarts","31.1986","-85.3027","-06:00",606,"COWA"
21821,254,158,"Butler","35.6455","-99.2605","-06:00",650,"BUTL"
26071,254,167,"Fork Union","37.7716","-78.2168","-05:00",556,"FUNO"
20423,254,139,"Beechmont","37.1764","-87.0499","-06:00",649,"BEEC"
38187,254,159,"Spray","44.7626","-119.864","-08:00",820,"SPRA"
5419,105,2042,"Delmas","18.55","-72.3","-05:00",,"DELM"
8639,254,139,"Hickman","36.5557","-89.2349","-06:00",632,"HICM"
30099,254,145,"Lastrup","46.0394","-94.0634","-06:00",613,"LAST"
22308,254,165,"Catarina","28.3456","-99.6133","-06:00",641,"CATA"
4203,122,2349,"Iwanuma","38.1","140.867","+09:00",,"IWAN"
34174,254,135,"Oraville","37.8652","-89.3834","-06:00",632,"ORAV"
39572,254,155,"Tyner","36.2553","-76.6351","-05:00",544,"TYNE"
7395,254,126,"Richmond","37.9355","-122.353","-08:00",807,"RICH"
12388,149,2898,"Kulim","5.367","100.567","+08:00",,"KULI"
23517,254,158,"Countyline","34.4489","-97.5626","-06:00",627,"COUN"
31347,254,157,"Maria Stein","40.3951","-84.5177","-05:00",542,"MSTI"
39753,254,126,"Vallecito","38.0554","-120.472","-08:00",862,"VALC"
16722,254,162,"Fort Lawn","34.7028","-80.9165","-05:00",517,"FLAW"
41400,254,170,"Woodford","42.6489","-89.8626","-06:00",669,"WOOF"
39352,254,148,"Trego","48.7054","-114.868","-07:00",881,"TREG"
24848,254,147,"East Lynne","38.6683","-94.2292","-06:00",616,"ELYN"
33573,254,164,"Normandy","35.4405","-86.2591","-06:00",659,"NORM"
37903,254,153,"Solano","35.846","-104.175","-07:00",790,"SOLA"
4916,253,5392,"Marlborough","51.424","-1.734","+00:00",,"MARL"
18249,64,5132,"Kralupy Nad Vltavou","50.233","14.317","+01:00",,"KNVL"
18796,24,1136,"Ninove","50.833","4.017","+01:00",,"NINO"
31423,254,123,"Marshall","61.9935","-161.712","-09:00",,"MARS"
41552,254,143,"Yarmouth Port","41.7045","-70.2302","-05:00",506,"YPOR"
41991,55,1328,"Lubumbashi","-11.667","27.467","+02:00",,"LUBU"
31132,254,154,"Maine","42.2117","-76.0557","-05:00",502,"MAIN"
32299,254,170,"Mindoro","44.0265","-91.0483","-06:00",702,"MIND"
6934,254,125,"Crossett","33.1917","-91.9836","-06:00",628,"CROS"
14792,254,135,"Canton","40.5579","-89.9752","-06:00",675,"CANT"
19587,254,157,"Ansonia","40.2169","-84.6599","-05:00",542,"ANSO"
19350,254,164,"Allred","36.3878","-85.1936","-06:00",659,"ALLR"
38295,254,135,"Standard","41.2558","-89.1775","-06:00",675,"STAD"
4299,122,2344,"Oiso","35.3","139.317","+09:00",,"OISO"
7335,254,126,"Oakland","37.7993","-122.24","-08:00",807,"OAKL"
40800,254,160,"Westfield","41.9252","-77.5198","-05:00",565,"WESF"
20981,254,141,"Blue Hill Falls","44.3828","-68.5955","-05:00",537,"BHFA"
35859,254,143,"Readville","42.3586","-71.0605","-05:00",506,"REAV"
39851,254,136,"Velpen","38.376","-87.1036","-05:00",649,"VELP"
4444,159,71,"Celaya","16.917","-93.117","-06:00",,"CELA"
10905,254,164,"Loudon","35.7114","-84.3653","-05:00",557,"LOUD"
21019,254,163,"Blunt","44.4586","-99.8388","-06:00",725,"BLUN"
37350,254,158,"Seiling","36.0756","-98.8177","-06:00",650,"SEIL"
35490,254,144,"Presque Isle","45.2881","-83.4563","-05:00",540,"PISL"
25151,254,165,"Elgin","30.2988","-97.3874","-06:00",635,"ELGI"
25452,254,155,"Erwin","35.3494","-78.7009","-05:00",560,"ERWI"
11977,254,131,"Pomona Park","29.5068","-81.6304","-05:00",561,"PPAK"
14363,254,159,"Vernonia","45.8715","-123.193","-08:00",820,"VERN"
37528,254,144,"Shelbyville","42.5914","-85.5913","-05:00",563,"SHEY"
40770,254,160,"West Willow","39.9726","-76.2885","-05:00",566,"WWIL"
22253,254,124,"Cashion","33.4284","-112.295","-07:00",753,"CASH"
34862,254,169,"Peytona","38.1255","-81.7102","-05:00",564,"PEYT"
34869,254,147,"Philadelphia","39.8355","-91.762","-06:00",717,"PHIA"
11632,254,170,"West Bend","43.4201","-88.1766","-06:00",617,"WBEN"
15206,122,2329,"Nagareyama","35.85","139.9","+09:00",,"NAGA"
17762,254,140,"Delhi","32.4445","-91.5289","-06:00",628,"DELH"
18300,178,4729,"Whakatane","-37.983","177","+12:00",,"WHAK"
20211,254,151,"Barrington","43.2039","-71.0483","-05:00",506,"BARR"
3497,234,4027,"Liestal","47.467","7.733","+01:00",,"LIES"
5171,53,1411,"Riohacha","11.55","-72.917","-05:00",,"RIOH"
19405,254,126,"Altaville","38.0926","-120.574","-08:00",862,"ALTV"
39754,254,153,"Vallecitos","36.6959","-106.135","-07:00",790,"VALL"
16419,119,2253,"Bottegone","43.891","10.9605","+01:00",,"BOTT"
22609,254,158,"Chelsea","36.5486","-95.4793","-06:00",671,"CHEL"
39503,254,143,"Turners Falls","42.605","-72.4997","-05:00",543,"TFAL"
12142,254,154,"Johnstown","43.0176","-74.3982","-05:00",532,"JOHN"
35851,254,145,"Reading","43.7177","-95.7533","-06:00",725,"READ"
8972,254,142,"Suitland","38.8439","-76.9232","-05:00",511,"SUIT"
27398,254,169,"Griffithsville","38.2451","-82.0036","-05:00",564,"GRIF"
38876,254,139,"Talbert","37.3936","-83.4427","-05:00",541,"TALB"
15803,254,154,"Lancaster","42.9085","-78.6272","-05:00",514,"LANC"
36483,254,146,"Rose Hill","32.1345","-89.014","-06:00",710,"RHIL"
13855,99,636,"Hagatna","0","0","+10:00",,"HAGA"
18800,65,1493,"Brøndby","55.617","12.35","+01:00",,"BRØN"
38535,254,154,"Stow","42.1569","-79.4017","-05:00",514,"STOW"
20492,254,169,"Belleville","39.122","-81.6736","-05:00",597,"BELL"
34335,254,122,"Owens Cross Roads","34.611","-86.4644","-06:00",691,"OCRO"
33966,254,135,"Odin","38.6077","-89.0557","-06:00",609,"ODIN"
37495,254,164,"Shawanee","36.5806","-83.6388","-05:00",557,"SHAW"
20537,254,152,"Belvidere","40.8345","-75.0376","-05:00",501,"BELV"
23732,254,160,"Crum Lynne","39.8649","-75.3407","-05:00",504,"CLYN"
37400,254,167,"Seven Mile Ford","36.8174","-81.6482","-05:00",531,"SMFO"
7252,254,126,"Lake Isabella","35.6214","-118.494","-08:00",800,"LISA"
10474,254,158,"Wheeless","36.719","-102.894","-06:00",634,"WHEE"
26431,254,149,"Funk","40.5251","-99.2414","-06:00",722,"FUNK"
27421,254,145,"Grove City","45.152","-94.6939","-06:00",613,"GCIY"
16646,233,4008,"Uplands Väsby","59.517","17.9","+01:00",,"UVÄS"
22195,254,157,"Carroll","39.7986","-82.7037","-05:00",535,"CARO"
26144,254,163,"Fort Pierre","44.268","-100.628","-06:00",725,"FPIE"
28918,254,172,"Irasburg","44.8143","-72.284","-05:00",523,"IRAS"
17309,254,135,"Palos Park","41.67","-87.8666","-06:00",602,"PPAR"
27979,254,170,"Hazelhurst","45.7571","-89.7926","-06:00",705,"HAZE"
37460,254,156,"Sharon","47.6293","-97.9207","-06:00",724,"SHAR"
5951,253,5390,"Hawick","55.431","-2.782","+00:00",,"HAWI"
9355,254,147,"Hermann","38.5988","-91.4946","-06:00",609,"HERM"
24957,254,144,"Eaton Rapids","42.5099","-84.6616","-05:00",551,"ERAP"
10161,254,154,"Kingston","41.9298","-74.038","-05:00",501,"KING"
41876,203,3564,"Raduznyj","62.09","77.23","+03:00",,"RADU"
10191,254,154,"Old Forge","43.7344","-74.8852","-05:00",526,"OFOR"
17888,254,128,"Woodstock","41.9714","-72.0176","-05:00",533,"WOOD"
41312,254,137,"Wiota","41.3734","-94.8144","-06:00",652,"WIOT"
38408,254,149,"Sterling","40.4616","-96.3476","-06:00",652,"STER"
14831,254,142,"Grantsville","39.6703","-79.1506","-05:00",508,"GRAN"
16377,113,2175,"Rajkot","22.3","70.783","+05:50",,"RAJK"
36524,254,143,"Roslindale","42.2845","-71.1256","-05:00",506,"ROSL"
3965,95,1940,"Kalamaria","40.583","22.967","+02:00",,"KALA"
13931,91,1916,"Hofgeismar","51.483","9.4","+01:00",,"HOFG"
23883,254,167,"Daleville","37.4044","-79.9221","-05:00",573,"DALE"
12697,254,126,"Cayucos","35.4901","-120.912","-08:00",855,"CAYU"
37819,254,134,"Smelterville","47.5436","-116.243","-08:00",881,"SMEL"
39373,254,166,"Trenton","41.898","-111.928","-07:00",770,"TREN"
21932,254,126,"Calpella","39.2346","-123.203","-08:00",807,"CALP"
1284,43,39,"Halifax","44.65","-63.6","-04:00",,"HALI"
24720,254,164,"Eagan","36.5519","-83.9769","-05:00",557,"EAGA"
5880,43,39,"Truro","45.367","-63.3","-04:00",,"TRUR"
16657,254,158,"Weleetka","35.3761","-96.1179","-06:00",671,"WELE"
4875,253,5392,"Brentwood","51.617","0.319","+00:00",,"BREN"
31326,254,147,"Marceline","39.6943","-92.9287","-06:00",616,"MARC"
33201,254,125,"New Edinburg","33.7656","-92.1916","-06:00",693,"NEDI"
37405,254,155,"Severn","36.5151","-77.19","-05:00",560,"SEVE"
20105,254,142,"Baldwin","39.5094","-76.4883","-05:00",512,"BALD"
24484,254,135,"Dowell","37.9394","-89.2376","-06:00",632,"DOWE"
34489,254,136,"Paoli","38.5454","-86.4243","-05:00",529,"PAOL"
6882,254,122,"Lanett","32.8944","-85.2564","-06:00",522,"LANE"
17918,254,146,"Sumrall","31.3235","-89.5695","-06:00",710,"SUMR"
31153,254,159,"Malin","42.0329","-121.431","-08:00",813,"MALI"
38913,254,159,"Tangent","44.5312","-123.09","-08:00",820,"TANG"
8661,254,139,"Madisonville","37.3245","-87.464","-06:00",649,"MADI"
17411,202,3383,"Tirgu Mures","46.55","24.567","+02:00",,"TMUR"
22799,254,131,"Citra","29.4052","-82.0904","-05:00",534,"CITR"
39457,254,125,"Tuckerman","35.7539","-91.1826","-06:00",693,"TUCK"
20127,254,157,"Baltic","40.4489","-81.6949","-05:00",510,"BALI"
21960,254,138,"Cambridge","37.3674","-96.6201","-06:00",678,"CAMB"
33893,254,132,"Oakman","34.5664","-84.7084","-05:00",524,"OAKM"
16088,133,2432,"Tongduch'on","37.91","127.055","+09:00",,"TONG"
28269,254,160,"Hillsgrove","41.4337","-76.7104","-05:00",577,"HILS"
28652,254,160,"Hughesville","41.2862","-76.6822","-05:00",577,"HUGH"
22997,254,128,"Clinton","41.2993","-72.53","-05:00",533,"CLIN"
31369,254,128,"Marion","41.5625","-72.9343","-05:00",533,"MARI"
15614,48,1371,"San Vicente De Tagua Tagua","-34.433","-71.083","-04:00",,"SVDT"
19883,254,160,"Atlantic","41.5368","-80.278","-05:00",516,"ATLA"
21822,254,164,"Butler","36.3143","-82.0015","-05:00",531,"BUTL"
39466,254,123,"Tuluksak","61.1059","-160.949","-09:00",,"TULU"
29497,254,137,"Keswick","41.4694","-92.2511","-06:00",637,"KESW"
33842,254,155,"Oak Island","33.9216","-78.1244","-05:00",550,"OISL"
36351,254,163,"Rockham","45.027","-98.7776","-06:00",725,"ROCK"
23922,254,165,"Danbury","29.2141","-95.3052","-06:00",618,"DANB"
23949,254,141,"Danville","44.021","-70.2756","-05:00",500,"DANV"
24636,254,146,"Dundee","34.5324","-90.3891","-06:00",640,"DUND"
41526,254,158,"Wynona","36.5364","-96.4044","-06:00",671,"WYNO"
12812,254,158,"Blanchard","35.1068","-97.617","-06:00",650,"BLAN"
6009,14,3,"Cunnamulla","-28.067","145.683","+10:00",,"CUNN"
32295,254,165,"Minden","32.1531","-94.7993","-06:00",709,"MIND"
33161,254,157,"New Bavaria","41.2048","-84.1907","-05:00",547,"NBAV"
28189,254,165,"Higgins","36.1482","-100.264","-06:00",634,"HIGG"
35819,254,144,"Ray","42.759","-82.9232","-05:00",505,"RAY"
16204,253,5392,"Congleton","53.168","-2.202","+00:00",,"CONG"
21608,254,131,"Bryant","26.8507","-80.6142","-05:00",548,"BRYA"
22713,254,127,"Chimney Rock","37.2078","-107.304","-07:00",751,"CROK"
7583,254,127,"Pueblo","38.2792","-104.638","-07:00",752,"PUEB"
12318,43,35,"Aylmer","45.4","-75.85","-05:00",,"AYLM"
25591,254,137,"Exline","40.6359","-92.8094","-06:00",679,"EXLI"
9391,254,147,"Moberly","39.4377","-92.3968","-06:00",604,"MOBE"
15417,133,2432,"Osan","36.66","127.378","+09:00",,"OSAN"
31083,254,135,"Madison","38.6797","-90.1504","-06:00",609,"MADI"
24887,254,154,"East Rockaway","40.6388","-73.6664","-05:00",501,"EROK"
6844,254,122,"Bessemer","33.4102","-86.9575","-06:00",630,"BESS"
20502,254,172,"Bellows Falls","43.1826","-72.5005","-05:00",506,"BFAL"
24831,254,128,"East Hartland","42.0033","-72.9462","-05:00",533,"EHAT"
12137,254,160,"Barnesville","40.7973","-76.0818","-05:00",577,"BARN"
28747,254,148,"Huson","47.1257","-114.447","-07:00",762,"HUSO"
18027,254,159,"Clatskanie","46.0479","-123.274","-08:00",820,"CLAT"
31695,254,153,"Mc Donald","33.1415","-103.314","-07:00",790,"MDON"
7418,254,126,"San Fernando","34.2844","-118.437","-08:00",803,"SFER"
9192,254,145,"Crookston","47.8137","-96.5605","-06:00",724,"CROO"
9816,254,149,"Nelson","40.2199","-98.0479","-06:00",722,"NELS"
29543,254,154,"Kill Buck","42.1297","-78.6354","-05:00",514,"KBUC"
9263,254,145,"Red Lake Falls","47.8717","-96.2666","-06:00",724,"RLFA"
11105,254,165,"Henrietta","33.8118","-98.225","-06:00",627,"HENR"
19004,138,2485,"Jbeil","34.117","35.65","+02:00",,"JBEI"
32336,254,145,"Minnesota Lake","43.8015","-93.8249","-06:00",613,"MLAX"
37834,254,141,"Smithfield","44.6345","-69.8002","-05:00",537,"SMIT"
14029,114,2163,"Tomohon","1.317","124.817","+08:00",,"TOMO"
20655,254,137,"Berwick","41.6636","-93.5468","-06:00",679,"BERW"
22481,254,145,"Ceylon","43.5443","-94.6132","-06:00",737,"CEYL"
40065,254,162,"Wagener","33.6528","-81.4253","-05:00",520,"WAGE"
6214,49,1348,"Lijiang","22.145","107.181","+08:00",,"LIJI"
14471,254,154,"Northport","40.9096","-73.3231","-05:00",501,"NORT"
25517,254,147,"Etterville","38.3697","-92.4734","-06:00",604,"ETTE"
36217,254,122,"River Falls","31.3549","-86.5399","-06:00",698,"RFAL"
17123,254,164,"Liberty","35.9611","-85.9793","-06:00",659,"LIBE"
30789,254,164,"Loretto","35.0661","-87.4247","-06:00",659,"LORE"
31415,254,138,"Marquette","38.5661","-97.8693","-06:00",678,"MARQ"
38096,254,158,"Southard","36.0705","-98.4554","-06:00",650,"SOUT"
1275,159,69,"Monterrey","25.667","-100.317","-06:00",,"MONT"
6289,49,1347,"Shangzhi","45.217","127.967","+08:00",,"SHAN"
14210,119,2247,"Ancona","43.633","13.5","+01:00",,"ANCO"
21241,254,160,"Bradfordwoods","40.6372","-80.0808","-05:00",508,"BRAF"
37672,254,126,"Sierraville","39.5395","-120.293","-08:00",862,"SIER"
10015,254,153,"Crownpoint","35.803","-107.894","-07:00",790,"CROW"
22571,254,140,"Chataignier","30.5684","-92.3216","-06:00",642,"CHAA"
29591,254,139,"Kings Mountain","37.3543","-84.7401","-05:00",541,"KMOU"
9208,254,145,"Fergus Falls","46.2831","-96.0881","-06:00",724,"FFAL"
29633,254,158,"Kiowa","34.7289","-95.9883","-06:00",671,"KIOW"
31987,254,165,"Mertens","32.0211","-96.8975","-06:00",623,"MERE"
33225,254,141,"New Harbor","43.8583","-69.5059","-05:00",500,"NHAR"
11697,254,169,"White Pine","38.947","-81.029","-05:00",564,"WPIN"
23823,254,144,"Custer","43.9231","-86.1946","-05:00",540,"CUST"
25547,254,169,"Evans","38.799","-81.8107","-05:00",564,"EVAN"
5806,43,36,"Peace River","56.233","-117.283","-07:00",,"PRIV"
36613,254,171,"Rozet","44.2798","-105.192","-07:00",751,"ROZE"
39819,254,125,"Vandervoort","34.3755","-94.3651","-06:00",693,"VAND"
16996,82,1803,"Longjumeau","48.7","2.3","+01:00",,"LONG"
25020,254,135,"Edgewood","38.891","-88.6694","-06:00",648,"EDGE"
34968,254,125,"Pindall","36.0719","-92.8894","-06:00",693,"PIND"
9010,254,141,"Portland","43.67","-70.2611","-05:00",500,"PORT"
12202,254,143,"Concord","42.464","-71.3767","-05:00",506,"CONC"
26551,254,139,"Garner","37.3774","-82.8859","-05:00",541,"GARN"
33835,254,144,"Oak Grove","42.6073","-83.9295","-05:00",505,"OGRO"
41427,254,170,"Woodruff","45.9553","-89.6779","-06:00",705,"WOOD"
8521,254,138,"Kingman","37.5907","-98.1192","-06:00",678,"KING"
9989,254,152,"Washington","40.7557","-75.0041","-05:00",501,"WASH"
17479,254,160,"Fredonia","41.3226","-80.2766","-05:00",536,"FREO"
42087,254,131,"Port Canaveral","28.4128","-80.5136","-05:00",534,"PCAN"
12344,254,152,"Egg Harbor City","39.5436","-74.5919","-05:00",504,"EHCI"
24540,254,125,"Driver","35.5531","-89.9549","-06:00",640,"DRIV"
32454,254,137,"Monroe","41.5545","-93.029","-06:00",679,"MONR"
11390,254,167,"Jonesville","36.676","-83.1648","-05:00",531,"JONE"
34061,254,152,"Oldwick","40.6728","-74.7476","-05:00",501,"OLDW"
37749,254,167,"Singers Glen","38.5528","-78.9136","-05:00",569,"SGLE"
7242,254,126,"La Puente","34.0292","-117.955","-08:00",803,"LPUE"
8874,254,143,"Plymouth","41.9319","-70.6552","-05:00",506,"PLYM"
18330,198,3311,"Vila Franca de Xira","38.95","-8.983","+00:00",,"VFDX"
28314,254,145,"Hitterdal","47.0205","-96.3154","-06:00",724,"HITT"
21525,254,122,"Brookwood","33.3333","-87.3156","-06:00",630,"BROO"
26288,254,163,"Frederick","45.8594","-98.5623","-06:00",725,"FRED"
33063,254,135,"Nebo","39.399","-90.761","-06:00",717,"NEBO"
9441,254,147,"Warrensburg","38.8247","-93.6796","-06:00",616,"WARR"
21893,254,125,"Caldwell","35.0744","-90.8164","-06:00",640,"CALD"
22104,254,141,"Cape Neddick","43.2219","-70.6402","-05:00",500,"CNED"
10842,254,163,"Woonsocket","44.0675","-98.2112","-06:00",725,"WOON"
25940,254,160,"Fleetville","41.5984","-75.7151","-05:00",577,"FLET"
8616,254,139,"Eddyville","37.0504","-88.0159","-06:00",632,"EDDY"
19133,254,170,"Adell","43.614","-88.0727","-06:00",617,"ADEL"
6468,115,2230,"Tabriz","38.08","46.292","+03:50",,"TABR"
7669,254,131,"Apalachicola","29.7314","-85.0367","-05:00",656,"APAL"
8882,254,143,"Somerville","42.3913","-71.103","-05:00",506,"SOME"
20682,254,126,"Bethel Island","38.0153","-121.64","-08:00",807,"BISL"
30077,254,170,"Laona","45.5665","-88.6366","-06:00",705,"LAON"
5769,243,4062,"Moruga","10.083","-61.283","-04:00",,"MORU"
25595,254,145,"Eyota","44.0209","-92.2585","-06:00",611,"EYOT"
38346,254,172,"Starksboro","44.2287","-72.9928","-05:00",523,"STAR"
41560,254,134,"Yellow Pine","45.0816","-115.288","-07:00",757,"YPIN"
20589,254,144,"Bentley","43.9373","-84.1309","-05:00",513,"BENT"
15437,65,1501,"Skive","56.567","9.033","+01:00",,"SKIV"
27508,254,140,"Hackberry","29.9774","-93.5089","-06:00",643,"HACK"
4516,159,60,"Tula","20.05","-99.35","-06:00",,"TULZ"
8849,254,143,"Leominster","42.5209","-71.7716","-05:00",506,"LEOM"
14140,254,149,"La Vista","41.166","-96.0444","-06:00",652,"LVIS"
20991,254,154,"Blue Point","40.75","-73.0352","-05:00",501,"BPON"
36553,254,167,"Round Hill","39.1195","-77.7845","-05:00",511,"RHIL"
19472,254,145,"Amboy","43.8935","-94.1925","-06:00",737,"AMBO"
19571,254,166,"Annabella","38.7145","-112.07","-07:00",770,"ANNA"
24844,254,141,"East Livermore","44.3996","-70.1271","-05:00",500,"ELIV"
25856,254,167,"Fife","37.7492","-78.0622","-05:00",556,"FIFE"
9307,254,147,"Aurora","36.8623","-93.6772","-06:00",619,"AURO"
13394,254,157,"Upper Sandusky","40.8171","-83.3077","-05:00",547,"USAN"
19848,254,135,"Astoria","40.2311","-90.3343","-06:00",675,"ASTO"
15799,254,149,"Gering","41.7826","-103.681","-07:00",759,"GERI"
14224,233,4000,"Motala","58.55","15.05","+01:00",,"MOTA"
39733,254,153,"Vado","32.1133","-106.663","-07:00",765,"VADO"
17321,198,3315,"Amora","38.617","-9.117","+00:00",,"AMOR"
31508,254,157,"Mason","39.354","-84.3079","-05:00",515,"MASO"
37852,254,147,"Smithville","39.3944","-94.5382","-06:00",616,"SMIT"
34091,254,138,"Olsburg","39.4193","-96.6028","-06:00",605,"OLSB"
15779,175,2977,"Winterswijk","51.967","6.717","+01:00",,"WINT"
20783,254,139,"Bimble","36.8905","-83.8262","-05:00",541,"BIMB"
22199,254,167,"Carrollton","36.9518","-76.5352","-05:00",544,"CARR"
34930,254,154,"Piermont","41.0383","-73.9183","-05:00",501,"PIEM"
14147,254,127,"Whitewater","38.9632","-108.346","-07:00",773,"WHIT"
14557,33,27,"Uberlândia","-18.917","-48.3","-03:00",,"UBER"
36603,254,143,"Royalston","42.5958","-72.2274","-05:00",506,"ROYA"
38845,254,138,"Sylvia","37.9516","-98.4153","-06:00",678,"SYLV"
36343,254,128,"Rockfall","41.5357","-72.7011","-05:00",533,"ROCK"
40443,254,143,"Wayland","42.3586","-71.3587","-05:00",506,"WAYL"
41392,254,128,"Woodbury","41.5631","-73.2084","-05:00",533,"WOOB"
4153,122,2337,"Ebetsu","43.117","141.567","+09:00",,"EBET"
10026,254,153,"Las Cruces","32.3816","-106.751","-07:00",765,"LCRU"
14001,43,37,"Milton","43.517","-79.883","-05:00",,"MILT"
7509,254,126,"West Covina","34.0535","-117.918","-08:00",803,"WCOV"
29317,254,135,"Kansas","39.5477","-87.921","-06:00",581,"KANS"
15359,43,36,"Ponoka","52.683","-113.567","-07:00",,"PONO"
21145,254,166,"Boulder","37.881","-111.274","-07:00",770,"BOUL"
32134,254,157,"Milan","41.3142","-82.6018","-05:00",510,"MILA"
8886,254,143,"Springfield","42.1065","-72.5628","-05:00",543,"SPRI"
21917,254,165,"Call","30.5194","-93.8093","-06:00",692,"CALZ"
29439,254,165,"Kennard","31.3488","-95.127","-06:00",709,"KENA"
4464,159,56,"Guaymas","27.933","-110.9","-07:00",,"GUAY"
9304,254,147,"Albany","40.2703","-94.321","-06:00",616,"ALBA"
39129,254,154,"Thousand Island Park","44.3008","-76.0192","-05:00",549,"TIPA"
33416,254,153,"Newkirk","35.1309","-104.22","-07:00",790,"NEWK"
33494,254,123,"Nightmute","60.7925","-161.756","-09:00",,"NIGH"
37304,254,137,"Searsboro","41.5553","-92.6995","-06:00",679,"SEAR"
25484,254,165,"Estelline","34.5467","-100.438","-06:00",634,"ESTE"
37065,254,153,"Sanostee","36.4298","-108.872","-07:00",790,"SANO"
34826,254,168,"Peshastin","47.5229","-120.609","-08:00",819,"PESH"
39782,254,135,"Valmeyer","38.2838","-90.3044","-06:00",609,"VALM"
40868,254,158,"Wewoka","35.2186","-96.5189","-06:00",650,"WEWO"
5219,68,1526,"Duverge","18.3","-70.567","-04:00",,"DUVE"
10757,254,162,"Saluda","34.0417","-81.7912","-05:00",520,"SALU"
38226,254,158,"Springer","34.3156","-97.1479","-06:00",657,"SPRI"
30643,254,164,"Lobelville","35.751","-87.856","-06:00",659,"LOBE"
23489,254,125,"Cotter","36.3079","-92.5383","-06:00",619,"COTT"
23488,254,154,"Cottekill","41.8474","-74.1039","-05:00",501,"COTT"
24803,254,151,"East Derry","42.8946","-71.2917","-05:00",506,"EDER"
9483,254,146,"Hattiesburg","31.3004","-89.3102","-06:00",710,"HATT"
36930,254,126,"Salida","37.7163","-121.094","-08:00",862,"SALD"
32645,254,122,"Morris","33.7323","-86.7666","-06:00",630,"MORR"
37029,254,124,"Sanders","35.3778","-109.356","-07:00",790,"SAND"
12621,185,3005,"Porsgrunn","59.15","9.667","+01:00",,"PORS"
21139,254,160,"Boswell","40.201","-79.0471","-05:00",574,"BOSW"
24753,254,139,"Earlington","37.2546","-87.5273","-06:00",649,"EARL"
16116,254,140,"Lacombe","30.3386","-89.9293","-06:00",622,"LACO"
20673,254,129,"Bethel","38.5723","-75.6191","-05:00",576,"BETH"
8763,254,140,"Mansfield","32.0037","-93.6731","-06:00",612,"MANS"
15825,91,1916,"Altenstadt","50.283","8.95","+01:00",,"ALTE"
38789,254,160,"Swarthmore","39.8981","-75.3465","-05:00",504,"SWAR"
30113,254,146,"Lauderdale","32.525","-88.4704","-06:00",711,"LAUD"
42136,143,2565,"Rietavas","55.73","21.92","+02:00",,"RIET"
21638,254,132,"Buckhead","33.5239","-83.3428","-05:00",524,"BUCK"
25125,254,135,"Eldred","39.2901","-90.5384","-06:00",609,"ELDR"
40651,254,154,"West Fulton","42.5625","-74.4646","-05:00",532,"WFUL"
6471,253,5391,"Armagh","54.35","-6.667","+00:00",,"ARMA"
29172,254,167,"Jewell Ridge","37.2274","-81.8121","-05:00",559,"JRID"
36518,254,157,"Rosewood","40.2182","-83.9599","-05:00",542,"ROSW"
19801,254,139,"Asher","37.0449","-83.4049","-05:00",531,"ASHE"
25884,254,163,"Firesteel","45.4293","-101.234","-07:00",687,"FIRE"
27877,254,128,"Harwinton","41.7549","-73.0582","-05:00",533,"HARW"
39483,254,158,"Tupelo","34.5418","-96.4396","-06:00",657,"TUPE"
15396,43,43,"Crofton","48.867","-123.65","-08:00",,"CROF"
17196,254,154,"Ridgewood","40.733","-73.8535","-05:00",501,"RIDG"
27135,254,127,"Grand Lake","40.2938","-105.882","-07:00",751,"GLAK"
20447,254,156,"Belfield","46.8731","-103.139","-07:00",687,"BELF"
23290,254,149,"Concord","42.375","-96.9623","-06:00",624,"CONC"
29287,254,124,"Kaibito","36.4905","-111.311","-07:00",753,"KAIB"
25751,254,135,"Farmington","40.6671","-90.0387","-06:00",675,"FARI"
29336,254,131,"Kathleen","28.2179","-82.0538","-05:00",539,"KATH"
9902,254,152,"Fair Lawn","40.9359","-74.1174","-05:00",501,"FLAW"
35717,254,165,"Ralls","33.5997","-101.356","-06:00",651,"RALL"
40308,254,146,"Washington","31.5786","-91.2994","-06:00",718,"WASH"
21187,254,145,"Bowstring","47.5432","-93.7965","-06:00",676,"BOWS"
27376,254,163,"Gregory","43.2419","-99.4287","-06:00",725,"GREG"
5389,104,2033,"NEW AMSTERDAM","6.25","-57.517","-03:00",,"NAMS"
23795,254,139,"Curdsville","37.7375","-87.3313","-06:00",649,"CURD"
28152,254,169,"Hewett","37.9585","-81.8534","-05:00",564,"HEWE"
38557,254,154,"Stratford","43.189","-74.6341","-05:00",532,"STRA"
40830,254,159,"Weston","45.7904","-118.291","-08:00",810,"WEST"
30983,254,154,"Lynbrook","40.6573","-73.674","-05:00",501,"LYNB"
14539,43,37,"Paris","43.2","-80.383","-05:00",,"PARI"
16134,254,124,"Prescott Valley","34.6018","-112.32","-07:00",753,"PVAL"
18463,233,4008,"Vallentuna","59.533","18.083","+01:00",,"VALL"
14444,65,1501,"Slagelse","55.4","11.367","+01:00",,"SLAG"
32783,254,154,"Mount Marion","42.0347","-74.0013","-05:00",501,"MMAR"
4483,159,56,"Navojoa","27.1","-109.433","-07:00",,"NAVO"
27711,254,155,"Harbinger","36.0882","-75.8175","-05:00",544,"HARB"
36066,254,134,"Richfield","43.0455","-113.979","-07:00",760,"RICH"
16365,254,134,"Ketchum","43.7579","-114.524","-07:00",760,"KETC"
21863,254,170,"Cable","46.2227","-91.1721","-06:00",676,"CABL"
26994,254,137,"Goodell","42.9509","-93.5593","-06:00",611,"GOOD"
7223,254,126,"Hollister","36.8252","-121.316","-08:00",828,"HOLL"
28174,254,146,"Hickory Flat","34.6392","-89.1796","-06:00",640,"HFLA"
13830,82,1813,"Annecy","45.9","6.117","+01:00",,"ANNE"
26844,254,160,"Glen Lyon","41.18","-76.0781","-05:00",577,"GLYO"
15766,233,4008,"Jakobsberg","59.417","17.833","+01:00",,"JAKO"
42224,251,4435,"Mariupol","47.1","37.55","+02:00",,"MARI"
13226,254,154,"Syosset","40.8277","-73.4994","-05:00",501,"SYOS"
21237,254,161,"Bradford","41.4008","-71.7509","-05:00",521,"BRAD"
3718,91,1916,"Melsungen","51.133","9.55","+01:00",,"MELS"
12952,254,154,"Homer","42.715","-76.1949","-05:00",555,"HOME"
15929,254,160,"Tafton","41.3693","-75.1093","-05:00",501,"TAFT"
26679,254,144,"Germfask","46.2466","-85.928","-05:00",553,"GERM"
28039,254,159,"Helix","45.9073","-118.844","-08:00",810,"HELI"
14271,119,2244,"santa Marinella","42.033","11.85","+01:00",,"SMAR"
5826,253,5392,"Bath","51.378","-2.366","+00:00",,"BATH"
9322,254,147,"Camdenton","37.9635","-92.7409","-06:00",619,"CAMD"
20990,254,154,"Blue Mountain Lake","43.8825","-74.4091","-05:00",532,"BMLA"
23193,254,145,"Cologne","44.77","-93.7897","-06:00",613,"COLO"
26547,254,125,"Garland City","33.3527","-93.7461","-06:00",612,"GCIT"
29872,254,157,"Laings","39.7166","-81.0128","-05:00",554,"LAIN"
8539,254,138,"McPherson","38.4089","-97.6556","-06:00",678,"MCPH"
10226,254,154,"Suffern","41.1483","-74.1189","-05:00",501,"SUFF"
24743,254,126,"Eagleville","41.3166","-120.115","-08:00",813,"EAGL"
35769,254,170,"Random Lake","43.5753","-87.9876","-06:00",617,"RLAE"
31605,254,125,"Mayflower","34.9587","-92.3576","-06:00",693,"MAYF"
16632,254,134,"Saint Maries","47.1781","-116.547","-08:00",881,"SMAR"
19917,254,138,"Auburn","38.9123","-95.8465","-06:00",605,"AUBU"
33819,254,131,"O Brien","30.0381","-82.9437","-05:00",530,"OBRI"
21840,254,143,"Byfield","42.7582","-70.9195","-05:00",506,"BYFI"
7247,254,126,"Laguna Niguel","33.5335","-117.746","-08:00",803,"LNIG"
10302,254,157,"Grove City","39.8683","-83.1183","-05:00",535,"GCIT"
15459,254,136,"Peru","40.7095","-86.0401","-05:00",527,"PERU"
34001,254,153,"Ojo Caliente","36.637","-105.845","-07:00",790,"OCAL"
4908,253,5390,"Kennet","56.104","-3.729","+00:00",,"KENN"
9452,254,146,"Batesville","34.345","-89.8815","-06:00",640,"BATE"
13369,254,136,"Newburgh","37.9537","-87.3842","-06:00",649,"NEWB"
27886,254,155,"Hassell","35.9116","-77.2788","-05:00",545,"HASS"
36356,254,134,"Rockland","42.4797","-112.863","-07:00",758,"ROCK"
42193,143,2535,"Zemaiciu Naumiestis","55.37","21.69","+02:00",,"ZNAU"
15509,81,1779,"Närpiö","62.467","21.333","+02:00",,"NÄRP"
27786,254,129,"Harrington","38.9242","-75.6177","-05:00",504,"HARR"
33272,254,144,"New Lothrop","43.1278","-83.9882","-05:00",513,"NLOT"
3661,91,1924,"Cranzahl","50.517","13","+01:00",,"CRAN"
8479,254,138,"Blue Rapids","39.6523","-96.5791","-06:00",605,"BRAP"
11720,254,171,"Pine Bluffs","41.1586","-104.14","-07:00",759,"PBLU"
35046,254,135,"Piper City","40.7556","-88.1823","-06:00",648,"PCIT"
36148,254,160,"Riegelsville","40.5709","-75.2357","-05:00",504,"RIEG"
5832,253,5392,"Chatham","51.361","0.535","+00:00",,"CHAT"
18832,14,4,"Liverpool","-33.9","150.933","+10:00",,"LIVE"
28305,254,167,"Hinton","38.4829","-79.0042","-05:00",569,"HINT"
13026,224,3684,"Lenasia","-26.317","27.833","+02:00",,"LENA"
30657,254,140,"Lockport","29.6443","-90.4226","-06:00",622,"LOCK"
36142,254,162,"Ridgeway","34.3435","-80.9048","-05:00",546,"RIDE"
12311,254,152,"Butler","40.9863","-74.383","-05:00",501,"BUTL"
31855,254,135,"Medora","39.2057","-90.1607","-06:00",609,"MEDO"
25668,254,144,"Fairview","44.7218","-83.9828","-05:00",540,"FAIR"
10094,254,154,"Baldwin","40.6539","-73.609","-05:00",501,"BALW"
10961,254,165,"Arlington","32.7173","-97.1143","-06:00",623,"ARLI"
38452,254,138,"Stilwell","38.7858","-94.6907","-06:00",616,"STIL"
40414,254,170,"Wausaukee","45.3517","-87.8967","-06:00",658,"WAUA"
3829,226,3933,"Toledo","39.867","-4.017","+01:00",,"TOLE"
30265,254,137,"Lehigh","42.3578","-93.9842","-06:00",679,"LEHI"
32959,254,147,"Myrtle","36.5208","-91.2587","-06:00",619,"MYRT"
18563,254,160,"Houston","40.2593","-80.2386","-05:00",508,"HOUS"
20871,254,160,"Blain","40.3145","-77.5067","-05:00",566,"BLAZ"
24979,254,165,"Ecleto","29.0309","-97.7378","-06:00",641,"ECLE"
40479,254,167,"Weber City","36.6235","-82.5305","-05:00",531,"WCIT"
40801,254,172,"Westfield","44.8799","-72.4718","-05:00",523,"WESI"
7882,254,132,"Decatur","33.758","-84.2732","-05:00",524,"DECA"
10457,254,158,"Sapulpa","35.9984","-96.1256","-06:00",671,"SAPU"
34933,254,154,"Pierrepont Manor","43.7353","-76.0592","-05:00",549,"PMAN"
29884,254,135,"Lake Bluff","42.2868","-87.8639","-06:00",602,"LBLU"
8377,254,136,"East Chicago","41.643","-87.4575","-06:00",602,"ECHI"
11835,254,144,"Baraga","46.811","-88.5098","-05:00",553,"BARA"
15623,81,5022,"Juuka","63.233","29.25","+02:00",,"JUUK"
11550,254,170,"Brookfield","43.0648","-88.1192","-06:00",617,"BROO"
20927,254,159,"Blodgett","44.6396","-123.623","-08:00",801,"BLOD"
21472,254,165,"Bronson","31.3308","-94.0111","-06:00",612,"BROY"
24324,254,147,"Diggins","37.1728","-92.8545","-06:00",619,"DIGG"
36689,254,167,"Rustburg","37.2496","-79.1082","-05:00",573,"RUST"
39029,254,155,"Terrell","35.587","-80.9648","-05:00",517,"TERR"
41298,254,129,"Winterthur","39.8036","-75.6117","-05:00",504,"WINT"
24211,254,165,"Dennis","32.6187","-97.9267","-06:00",623,"DENN"
33495,254,123,"Nikiski","60.7377","-151.325","-09:00",743,"NIKI"
33923,254,126,"Occidental","38.4032","-123.007","-08:00",807,"OCCI"
32943,254,138,"Muscotah","39.5986","-95.4866","-06:00",616,"MUSC"
11363,254,167,"Culpeper","38.467","-77.9818","-05:00",511,"CULP"
34455,254,126,"Palo Cedro","40.5859","-122.199","-08:00",868,"PCED"
30690,254,147,"Lohman","38.5517","-92.402","-06:00",604,"LOHM"
36891,254,160,"Saint Petersburg","41.1619","-79.6532","-05:00",508,"SPEE"
3500,234,4033,"Saint Moritz","46.4933","9.8217","+01:00",,"SMOR"
23462,254,164,"Corryton","36.1276","-83.806","-05:00",557,"CORR"
32452,254,125,"Monroe","34.7349","-91.1031","-06:00",693,"MONR"
22888,254,165,"Clay","30.3443","-96.53","-06:00",625,"CLAY"
27181,254,137,"Grant","41.1153","-94.9846","-06:00",652,"GRAT"
15879,114,189,"nabire","-3.367","135.483","+08:00",,"NABI"
4862,250,4311,"Kampala","0.317","32.583","+03:00",,"KAMP"
21222,254,156,"Braddock","46.5479","-100.258","-06:00",687,"BRAD"
5612,194,3195,"Yanahuara","-14.396","-71.492","-05:00",,"YANA"
38275,254,138,"Stafford","37.9116","-98.5821","-06:00",678,"STAF"
14509,81,5023,"Nokia","61.467","23.5","+02:00",,"NOKI"
25565,254,140,"Evergreen","30.9447","-92.1075","-06:00",644,"EVER"
40954,254,162,"White Rock","34.1451","-81.2756","-05:00",546,"WROC"
8059,254,137,"Forest City","43.2808","-93.6163","-06:00",611,"FCIT"
40289,254,164,"Wartrace","35.5101","-86.3217","-06:00",659,"WARR"
23693,254,160,"Cross Fork","41.5047","-77.7363","-05:00",514,"CFOK"
15999,14,2,"Penguin","-41.117","146.067","+10:00",,"PENG"
16667,254,142,"Kingsville","39.4507","-76.4209","-05:00",512,"KING"
26360,254,160,"Friedens","40.0082","-78.8956","-05:00",574,"FRID"
5725,259,4530,"Santa Rosa","1.442","-66.904","-04:00",,"SROS"
18237,254,139,"Vine Grove","37.8337","-86.0614","-05:00",529,"VGRO"
23669,254,125,"Crocketts Bluff","34.4202","-91.2286","-06:00",693,"CBLU"
19368,254,154,"Almond","42.3156","-77.8372","-05:00",514,"ALMO"
28243,254,165,"Hillister","30.6793","-94.3818","-06:00",692,"HILI"
41535,254,169,"Wyoming","37.5823","-81.6018","-05:00",559,"WYOM"
25858,254,170,"Fifield","45.8452","-90.4368","-06:00",705,"FIFI"
38773,254,154,"Swain","42.4769","-77.8915","-05:00",514,"SWAI"
31579,254,132,"Maxeys","33.7539","-83.1743","-05:00",524,"MAXE"
18959,118,2232,"Rechovot","0","0","+02:00",,"RECH"
41409,254,135,"Woodland","40.7147","-87.7313","-06:00",648,"WOOA"
32317,254,139,"Minerva","38.7056","-83.9195","-05:00",515,"MINE"
7366,254,126,"Placentia","33.8826","-117.857","-08:00",803,"PLAE"
14922,175,2979,"Weert","50.883","5.733","+01:00",,"WEER"
31158,254,154,"Mallory","43.3503","-76.1007","-05:00",555,"MALL"
15491,254,135,"Montrose","39.1496","-88.3177","-06:00",648,"MONR"
31628,254,169,"Maysville","39.0955","-79.1981","-05:00",511,"MAYS"
22182,254,169,"Carolina","39.4806","-80.2736","-05:00",598,"CARO"
24064,254,147,"De Witt","39.3537","-93.2941","-06:00",616,"DWIT"
41557,254,139,"Yeaddiss","37.0427","-83.2166","-05:00",531,"YEAD"
41919,113,5267,"Bilaspur","22.09","82.15","+05:50",,"BILA"
10605,254,160,"Lancaster","40.0362","-76.306","-05:00",566,"LANC"
34848,254,169,"Petroleum","39.1806","-81.2495","-05:00",598,"PETO"
38651,254,125,"Sulphur Rock","35.8459","-91.4633","-06:00",693,"SROC"
4537,179,3056,"Corinto","12.033","-86.35","-06:00",,"CORI"
15085,254,122,"Aliceville","33.1204","-88.1617","-06:00",630,"ALIC"
17951,254,154,"Congers","41.1552","-73.9399","-05:00",501,"CONG"
15587,254,165,"Port Neches","29.9818","-93.9497","-06:00",692,"PNEC"
33838,254,122,"Oak Hill","31.9217","-87.0814","-06:00",698,"OHIL"
29234,254,155,"Jonesville","36.2274","-80.767","-05:00",518,"JONE"
33441,254,155,"Newton","35.6271","-81.2599","-05:00",517,"NEWT"
10805,254,163,"Lead","44.253","-103.913","-07:00",764,"LEAD"
21568,254,132,"Broxton","31.6888","-82.911","-05:00",525,"BROX"
34481,254,165,"Panola","32.3555","-94.0955","-06:00",612,"PANO"
34719,254,141,"Pembroke","44.9808","-67.2405","-05:00",537,"PEMB"
19114,254,142,"Adamstown","39.293","-77.4503","-05:00",511,"ADAM"
30257,254,160,"Leetsdale","40.5656","-80.2128","-05:00",508,"LEET"
29088,254,157,"Jasper","39.0507","-83.0574","-05:00",535,"JASP"
10412,254,158,"Cordell","35.2449","-98.8523","-06:00",650,"CORD"
22786,254,123,"Circle","66.274","-142.524","-09:00",,"CIRC"
23436,254,170,"Cornell","45.1661","-91.2746","-06:00",702,"CORN"
12390,198,3313,"Maia","41.233","-8.617","+00:00",,"MAIA"
11224,254,165,"Rockwall","32.8846","-96.42","-06:00",623,"ROCW"
11375,254,167,"Front Royal","38.9572","-78.2104","-05:00",511,"FROY"
26172,254,147,"Fortuna","38.5806","-92.7743","-06:00",604,"FORT"
24369,254,171,"Dixon","41.1009","-107.542","-07:00",751,"DIXO"
31848,254,164,"Medina","35.7814","-88.7757","-06:00",640,"MEDI"
28036,254,126,"Helendale","34.8027","-117.362","-08:00",803,"HELE"
32307,254,157,"Mineral City","40.5975","-81.3327","-05:00",510,"MCIT"
33045,254,122,"Nauvoo","33.9357","-87.4441","-06:00",630,"NAUV"
5196,68,1533,"Bani","18.283","-70.333","-04:00",,"BANI"
26992,254,145,"Good Thunder","43.977","-94.0652","-06:00",737,"GTHU"
41183,254,171,"Wilson","43.4429","-110.937","-07:00",758,"WILS"
5211,68,1537,"Cevicos","19","-69.983","-04:00",,"CEVI"
41345,254,172,"Wolcott","44.5359","-72.4842","-05:00",523,"WOLC"
32473,254,157,"Monroeville","41.2282","-82.706","-05:00",510,"MONO"
32737,254,157,"Mount Blanchard","40.8991","-83.5346","-05:00",547,"MBLA"
32131,254,145,"Milan","45.1077","-95.8632","-06:00",613,"MILN"
26001,254,160,"Fogelsville","40.5948","-75.6677","-05:00",504,"FOGE"
17363,254,155,"Pinnacle","36.3244","-80.463","-05:00",518,"PINN"
28116,254,149,"Herman","41.6449","-96.3193","-06:00",652,"HERM"
11303,254,166,"Joseph","38.6226","-112.227","-07:00",770,"JOSE"
12756,254,164,"Crockett Mills","35.8671","-89.1713","-06:00",640,"CMIL"
13379,254,126,"Idyllwild","33.7589","-116.725","-08:00",803,"IDYL"
33674,254,149,"North Loup","41.4844","-98.8112","-06:00",722,"NLOU"
36348,254,157,"Rockford","40.6807","-84.6732","-05:00",542,"ROCF"
3960,102,2004,"Conakry","9.511","-13.714","+00:00",,"CONA"
5684,259,4548,"Lagunillas","7.787","-72.249","-04:00",,"LAGU"
25424,254,156,"Epping","48.2414","-103.346","-06:00",687,"EPPI"
41066,254,159,"Wilderville","42.3783","-123.692","-08:00",813,"WILD"
8697,254,139,"Scottsville","36.7794","-86.196","-05:00",659,"SCOT"
19454,254,154,"Amagansett","40.9764","-72.1316","-05:00",501,"AMAG"
34306,254,165,"Otto","31.4335","-96.8688","-06:00",625,"OTTO"
28820,254,160,"Imler","40.2482","-78.5409","-05:00",574,"IMLE"
35677,254,154,"Quogue","40.8157","-72.6045","-05:00",501,"QUOG"
41628,254,170,"Zachow","44.7325","-88.3637","-06:00",658,"ZACH"
9376,254,147,"Lexington","39.1444","-93.84","-06:00",616,"LEXI"
13746,254,140,"DeQuincy","30.3794","-93.4077","-06:00",643,"DEQU"
39258,254,167,"Toms Brook","38.968","-78.4157","-05:00",511,"TBRO"
18016,254,159,"Aurora","45.2365","-122.798","-08:00",820,"AURO"
40553,254,172,"Wells River","44.156","-72.0703","-05:00",523,"WRIV"
41100,254,138,"Williamsburg","38.4668","-95.425","-06:00",616,"WILL"
15937,254,127,"Calhan","39.0026","-104.316","-07:00",752,"CALH"
20921,254,154,"Bliss","42.578","-78.2478","-05:00",514,"BLIS"
27033,254,167,"Gordonsville","38.0919","-78.1851","-05:00",556,"GORD"
18251,254,131,"Micanopy","29.5423","-82.2865","-05:00",592,"MICA"
37657,254,135,"Sidell","39.9139","-87.8502","-06:00",648,"SIDE"
4943,253,5392,"Truro","50.26","-5.052","+00:00",,"TRUR"
18820,253,5392,"Brighton","50.843","-0.132","+00:00",,"BRIG"
33996,254,148,"Oilmont","48.7543","-111.774","-07:00",755,"OILM"
3511,48,1364,"Valparaiso","-33.048","-71.601","-04:00",,"VALP"
35380,254,126,"Portola Valley","37.3686","-122.215","-08:00",807,"PVAY"
39225,254,132,"Toccoa Falls","34.5944","-83.3575","-05:00",567,"TFAS"
36808,254,135,"Saint Elmo","39.0422","-88.8626","-06:00",609,"SELM"
12523,119,2249,"Moncalieri","45","7.683","+01:00",,"MONC"
38160,254,154,"Speonk","40.8186","-72.7097","-05:00",501,"SPEO"
42218,50,587,"Flying Fish Cove","-10.417","105.717","+07:00",,"FFCO"
14684,254,165,"Chandler","32.2481","-95.545","-06:00",623,"CHAD"
26839,254,170,"Glen Haven","42.8207","-90.9874","-06:00",669,"GHAV"
35873,254,167,"Rectortown","38.9211","-77.8617","-05:00",511,"RECT"
3428,29,1175,"Oruro","-17.983","-67.15","-04:00",,"ORUR"
24228,254,147,"Denver","40.4282","-94.2902","-06:00",638,"DENV"
39992,254,125,"Viola","36.3871","-91.9937","-06:00",619,"VIOL"
39977,254,122,"Vincent","33.4006","-86.3948","-06:00",630,"VINC"
40514,254,158,"Welch","36.922","-95.2172","-06:00",671,"WELC"
6156,49,1345,"Hami","42.8","93.45","+08:00",,"HAMI"
11593,254,170,"Montello","43.7552","-89.3549","-06:00",669,"MONT"
15723,254,137,"Grinnell","41.7319","-92.7662","-06:00",679,"GRIN"
31100,254,137,"Madrid","41.9049","-93.9596","-06:00",679,"MADR"
35804,254,126,"Ravendale","40.8011","-120.178","-08:00",811,"RAVE"
40714,254,154,"West Oneonta","42.4453","-75.1152","-05:00",526,"WONE"
9042,254,144,"Caro","43.4866","-83.3855","-05:00",513,"CARO"
9537,254,148,"Anaconda","46.0302","-113.144","-07:00",754,"ANAC"
29065,254,162,"Jamestown","33.1964","-79.6934","-05:00",519,"JAME"
4016,117,1598,"Ennis","52.844","-8.986","+00:00",,"ENNI"
29702,254,160,"Knox Dale","41.0862","-79.0269","-05:00",574,"KDAL"
35187,254,137,"Plymouth","43.2465","-93.1232","-06:00",611,"PLYM"
12743,43,41,"Carbonear","47.733","-53.25","-03:50",,"CARB"
12515,207,3944,"Castries","14","-61","-04:00",,"CAST"
38419,254,141,"Steuben","44.5069","-67.9643","-05:00",537,"STEU"
4075,119,2246,"Bergamo","45.683","9.717","+01:00",,"BERG"
10045,254,153,"Socorro","33.8946","-106.565","-07:00",790,"SOCO"
26603,254,169,"Gauley Bridge","38.1611","-81.1676","-05:00",559,"GBRI"
9456,254,146,"Biloxi","30.4156","-88.9194","-06:00",746,"BILO"
15025,43,35,"Rouyn-Noranda","48.23","-79.02","-05:00",,"ROUY"
41826,14,4,"Wee Jasper","-35.15","148.7","+10:00",,"WJAS"
23440,254,157,"Corning","39.6239","-82.0947","-05:00",535,"CORN"
33902,254,126,"Oakville","38.4369","-122.401","-08:00",807,"OAKV"
4771,233,4002,"Eskilstuna","59.367","16.5","+01:00",,"ESKI"
5930,43,35,"Hull","45.433","-75.733","-05:00",,"HULL"
7833,254,132,"Alma","31.5537","-82.4528","-05:00",507,"ALMA"
21115,254,122,"Booth","32.5003","-86.5717","-06:00",698,"BOOT"
6301,49,1353,"Sog Xian","0","0","+08:00",,"SXIA"
13480,254,164,"Rives","36.2693","-89.0502","-06:00",632,"RIVE"
20476,254,137,"Belle Plaine","41.9061","-92.1836","-06:00",637,"BPLA"
35651,254,138,"Quenemo","38.5736","-95.5568","-06:00",605,"QUEN"
7277,254,126,"Los Gatos","37.2065","-121.965","-08:00",807,"LGAT"
38205,254,167,"Spring Grove","37.1766","-76.9922","-05:00",544,"SGRV"
35538,254,169,"Procious","38.4633","-81.2224","-05:00",564,"PROI"
37648,254,143,"Shutesbury","42.4779","-72.4152","-05:00",543,"SHUT"
10447,254,158,"Okmulgee","35.6454","-96.0285","-06:00",671,"OKMU"
37951,254,126,"Soquel","37.0264","-121.952","-08:00",828,"SOQU"
33679,254,158,"North Miami","36.9167","-94.8798","-06:00",603,"NMIA"
16363,254,154,"Broadalbin","43.0744","-74.1473","-05:00",532,"BROA"
19399,254,165,"Altair","29.5713","-96.4539","-06:00",618,"ALTA"
26338,254,155,"Fremont","35.5277","-77.996","-05:00",560,"FREM"
6412,82,1813,"Val-d'Isere","45.4475","6.9792","+01:00",,"VALD"
7331,254,126,"North Highlands","38.6687","-121.389","-08:00",862,"NHIG"
8558,254,138,"Pittsburg","37.4268","-94.7004","-06:00",603,"PITT"
5665,259,4536,"Cumarebo","11.489","-69.351","-04:00",,"CUMA"
9809,254,149,"Loup City","41.3026","-99.0141","-06:00",722,"LCIT"
6666,233,3990,"Halmstad","56.671","12.856","+01:00",,"HALM"
37698,254,145,"Silver Creek","45.3293","-93.9522","-06:00",613,"SCRE"
13854,254,154,"Nesconset","40.8451","-73.1449","-05:00",501,"NESC"
22552,254,167,"Charlotte Court House","37.0879","-78.6579","-05:00",573,"CCHO"
23812,254,137,"Cushing","42.4628","-95.6915","-06:00",624,"CUSH"
6784,270,4678,"Sanaa","15.355","44.207","+03:00",,"SANA"
25224,254,132,"Ellenwood","33.6382","-84.2654","-05:00",524,"ELLE"
13637,119,2257,"Treviso","45.667","12.245","+01:00",,"TREV"
20313,254,169,"Bayard","39.2726","-79.3649","-05:00",511,"BAYA"
33773,254,132,"Norwood","33.4918","-82.7343","-05:00",520,"NORW"
32801,254,164,"Mount Pleasant","35.5165","-87.2146","-06:00",659,"MPLE"
14091,254,156,"Leeds","48.2518","-99.4309","-06:00",724,"LEED"
22783,254,137,"Cincinnati","40.6341","-92.9239","-06:00",679,"CINC"
31929,254,132,"Menlo","34.6147","-85.4647","-05:00",524,"MENL"
7492,254,126,"Twentynine Palms","34.3015","-116.007","-08:00",803,"TPAL"
20435,254,139,"Belcher","37.3106","-82.4001","-05:00",564,"BELC"
35788,254,144,"Rapid City","44.8071","-85.2543","-05:00",540,"RCIX"
14453,254,160,"Ambler","40.1823","-75.2133","-05:00",504,"AMBL"
20066,254,146,"Bailey","32.4841","-88.7011","-06:00",711,"BAIL"
25119,254,147,"Eldon","38.333","-92.5524","-06:00",604,"ELDO"
16281,82,1793,"Mérignac","44.833","-0.633","+01:00",,"MÉRI"
41387,254,126,"Woodbridge","38.1679","-121.321","-08:00",862,"WOOB"
22062,254,156,"Cannon Ball","46.3763","-100.637","-07:00",687,"CBAL"
24572,254,146,"Dublin","34.0783","-90.4952","-06:00",640,"DUBL"
24791,254,172,"East Burke","44.6047","-71.9209","-05:00",523,"EBUR"
23844,254,131,"Cypress","30.7131","-85.0736","-06:00",656,"CYPR"
6233,49,1333,"Madoi","35.033","96.383","+08:00",,"MADO"
33609,254,154,"North Branch","41.8137","-74.9799","-05:00",501,"NBRA"
20988,254,125,"Blue Mountain","35.1435","-93.7177","-06:00",670,"BMOU"
29446,254,145,"Kenneth","43.7633","-96.1115","-06:00",725,"KENE"
40676,254,155,"West Jefferson","36.358","-81.4709","-05:00",517,"WJEF"
41979,254,144,"Kentwood","42.869","-85.645","-05:00",563,"KENT"
14387,254,144,"Clare","43.8522","-84.7207","-05:00",540,"CLAE"
18178,254,135,"Prophetstown","41.5909","-89.9498","-06:00",682,"PROP"
27222,254,169,"Grassy Meadows","37.845","-80.7415","-05:00",559,"GMEA"
41337,254,144,"Wixom","42.5224","-83.5418","-05:00",505,"WIXO"
41990,55,1328,"Likasi","-10.981","26.733","+02:00",,"LIKA"
10604,254,160,"Kutztown","40.5336","-75.7775","-05:00",504,"KUTZ"
31986,254,132,"Mershon","31.4794","-82.2176","-05:00",561,"MERS"
15770,175,2985,"Katwijk","52.033","4.467","+01:00",,"KATW"
27207,254,160,"Granville Summit","41.6679","-76.7185","-05:00",577,"GSUM"
15149,82,1813,"Saint-Etienne","45.4408","4.39","+01:00",,"SAIN"
17507,43,43,"Cobble Hill","48.683","-123.6","-08:00",,"CHIZ"
16072,254,160,"Brownsville","40.0327","-79.9541","-05:00",508,"BROW"
27844,254,160,"Hartleton","40.8997","-77.1574","-05:00",577,"HARN"
29935,254,123,"Lake Minchumina","63.8057","-152.424","-09:00",,"LMIN"
37515,254,165,"Sheffield","30.7379","-102.032","-06:00",633,"SHEF"
17097,253,5392,"Newbury","51.404","-1.317","+00:00",,"NEWB"
33971,254,138,"Offerle","37.869","-99.5181","-06:00",678,"OFFE"
41937,254,127,"Lakewood","39.705","-105.081","-07:00",751,"LAKE"
34107,254,144,"Omena","45.0557","-85.5888","-05:00",540,"OMEN"
3350,10,1074,"San Miguel de Tucuman","-26.817","-65.217","-03:00",,"SMDT"
26346,254,147,"French Village","38.003","-90.4069","-06:00",609,"FVIL"
38533,254,155,"Stovall","36.4481","-78.5709","-05:00",560,"STOV"
18046,49,1336,"Jiangyin","31.906","120.268","+08:00",,"JIAN"
40046,254,167,"Wachapreague","37.605","-75.6892","-05:00",544,"WACH"
29894,254,162,"Lake City","33.8596","-79.6914","-05:00",570,"LCIT"
10819,254,163,"Parker","43.413","-97.1153","-06:00",725,"PARE"
13733,159,203,"San Luis Potosí","22.15","-100.983","-06:00",,"SLPO"
13794,254,142,"Damascus","39.2916","-77.2137","-05:00",511,"DAMA"
36893,254,154,"Saint Regis Falls","44.5179","-74.5347","-05:00",523,"SRFA"
17782,224,3683,"Grahamstown","-33.3","26.533","+02:00",,"GRAH"
32838,254,169,"Mountain","39.3617","-80.9106","-05:00",598,"MOUT"
41710,33,15,"Maringá","-23.417","-51.917","-03:00",,"MARI"
18070,91,1921,"Wedel","53.583","9.717","+01:00",,"WEDE"
34207,254,156,"Oriska","46.9493","-97.7811","-06:00",724,"ORIS"
25994,254,162,"Floyd Dale","34.3238","-79.3373","-05:00",570,"FDAL"
19096,254,135,"Adair","40.3655","-90.5054","-06:00",717,"ADAI"
22436,254,160,"Centerport","40.4875","-76.0083","-05:00",504,"CENE"
37574,254,169,"Sherman","39.0211","-81.6866","-05:00",564,"SHER"
3667,91,1926,"Eisenach","50.983","10.317","+01:00",,"EISE"
9920,254,152,"Jersey City","40.7255","-74.0652","-05:00",501,"JCIT"
13641,253,5392,"Chelmsford","51.731","0.469","+00:00",,"CHEM"
31613,254,145,"Maynard","44.933","-95.4972","-06:00",613,"MAYN"
32970,254,165,"Nada","29.4044","-96.3862","-06:00",618,"NADA"
39925,254,160,"Vestaburg","40.0162","-79.9901","-05:00",508,"VEST"
8575,254,138,"Syracuse","37.9958","-101.811","-07:00",678,"SYRA"
22728,254,165,"Chireno","31.4996","-94.4148","-06:00",709,"CHIR"
24644,254,157,"Dunkirk","40.7962","-83.6383","-05:00",535,"DUNK"
35806,254,125,"Ravenden Springs","36.3618","-91.2431","-06:00",734,"RSPR"
4029,118,2234,"Akko","32.924","35.073","+02:00",,"AKKO"
11256,254,165,"Tahoka","33.203","-101.844","-06:00",651,"TAHO"
24323,254,134,"Dietrich","42.9335","-114.272","-07:00",760,"DIET"
15965,43,35,"Valleyfield","45.25","-74.133","-05:00",,"VALL"
40611,254,135,"West Brooklyn","41.7274","-89.157","-06:00",610,"WBRO"
12902,91,1917,"Clausthal-Zellerfeld","51.8","10.333","+01:00",,"CLAU"
24981,254,146,"Ecru","34.3341","-88.9548","-06:00",673,"ECRU"
42122,143,2572,"Salcininkai","54.31","25.37","+02:00",,"SALC"
30499,254,135,"Lindenwood","42.0431","-89.0188","-06:00",610,"LIND"
11432,254,167,"Radford","37.1499","-80.5998","-05:00",573,"RADF"
40249,254,167,"Warfield","36.8974","-77.7408","-05:00",556,"WARF"
21463,254,160,"Brogue","39.8814","-76.4755","-05:00",566,"BROG"
34236,254,141,"Orrs Island","43.7705","-69.9671","-05:00",500,"OISL"
39917,254,135,"Versailles","39.8854","-90.684","-06:00",717,"VERS"
40201,254,136,"Walton","40.6688","-86.2868","-05:00",527,"WALT"
4041,118,2234,"Karmi'el","32.917","35.304","+02:00",,"KARM"
4859,259,4535,"Caracas","10.5","-66.917","-04:00",,"CARA"
28554,254,147,"Horton","37.997","-94.3929","-06:00",603,"HORT"
30526,254,136,"Linn Grove","40.6579","-84.9519","-05:00",509,"LGRO"
41421,254,160,"Woodlyn","39.8754","-75.3471","-05:00",504,"WOOL"
8989,254,141,"Canton","44.4022","-70.3258","-05:00",500,"CANT"
16641,82,1812,"Meylan","45.233","5.783","+01:00",,"MEYL"
39645,254,154,"Union Hill","43.2181","-77.3834","-05:00",538,"UHIL"
34921,254,134,"Pierce","46.4702","-115.779","-08:00",881,"PIER"
37453,254,155,"Shannon","34.9046","-79.1636","-05:00",570,"SHAN"
24547,254,160,"Drums","41.0326","-75.9854","-05:00",577,"DRUM"
34707,254,144,"Pelkie","46.7302","-88.6474","-05:00",553,"PELK"
39519,254,142,"Tuscarora","39.2654","-77.503","-05:00",511,"TUSC"
10655,254,160,"Punxsutawney","40.9472","-78.981","-05:00",574,"PUNX"
13771,91,1916,"Marburg","50.817","8.767","+01:00",,"MARB"
23470,254,154,"Cortlandt Manor","41.2893","-73.9009","-05:00",501,"CMAN"
15621,254,124,"Mohave Valley","34.9268","-114.599","-07:00",753,"MVAL"
22347,254,122,"Cecil","32.2967","-85.973","-06:00",698,"CECI"
33339,254,141,"New Sweden","46.9668","-68.1186","-05:00",552,"NSWE"
35241,254,160,"Polk","41.3341","-79.9315","-05:00",508,"POLK"
36099,254,157,"Richmond Dale","39.2024","-82.8044","-05:00",535,"RDAL"
6100,49,1339,"Changting","25.867","116.317","+08:00",,"CHAN"
24508,254,156,"Drake","47.8494","-100.392","-06:00",687,"DRAK"
28757,254,135,"Hutsonville","39.1056","-87.6846","-06:00",581,"HUTS"
9650,254,155,"Nashville","36.0008","-77.9647","-05:00",560,"NASH"
12674,185,2992,"Drammen","59.743","10.212","+01:00",,"DRAM"
20430,254,158,"Beggs","35.7942","-96.0408","-06:00",671,"BEGG"
32201,254,165,"Millersview","31.4478","-99.7083","-06:00",661,"MILR"
18717,14,2,"Claremont","-42.783","147.25","+10:00",,"CLAR"
5505,120,2375,"Porus","18.033","-77.417","-05:00",,"PORU"
26012,254,137,"Fonda","42.6318","-94.8166","-06:00",679,"FOND"
38224,254,166,"Springdale","37.1888","-113","-07:00",770,"SPRI"
12108,253,5392,"Huddersfield","53.645","-1.781","+00:00",,"HUDD"
19659,254,149,"Archer","41.1769","-98.1165","-06:00",722,"ARCH"
21720,254,160,"Bunola","40.2374","-79.9506","-05:00",508,"BUNO"
5523,120,2379,"Springfield","17.983","-77.067","-05:00",,"SPRI"
27326,254,155,"Greenmountain","35.955","-82.2044","-05:00",567,"GREM"
38852,254,127,"Tabernash","40.0107","-105.87","-07:00",751,"TABE"
8638,254,139,"Henderson","37.8135","-87.543","-06:00",649,"HEND"
39544,254,145,"Twin Lakes","43.5495","-93.3915","-06:00",611,"TLAK"
11587,254,170,"Medford","45.2044","-90.4212","-06:00",705,"MEDF"
31560,254,165,"Maud","33.3608","-94.4651","-06:00",612,"MAUD"
34035,254,160,"Old Forge","41.3713","-75.7405","-05:00",577,"OFOR"
26188,254,138,"Fostoria","39.4399","-96.5078","-06:00",605,"FOST"
12308,254,154,"Hollis Hills","40.713","-73.768","-05:00",501,"HHIL"
12329,15,1082,"Hohenems","47.367","9.683","+01:00",,"HOHE"
36660,254,166,"Rush Valley","40.3367","-112.461","-07:00",770,"RVAL"
21563,254,141,"Brownville","45.4731","-69.1129","-05:00",537,"BRON"
4470,159,59,"Lagos De Moreno","21.35","-101.917","-06:00",,"LDMO"
5095,48,1375,"La Cisterna","-33.55","-70.683","-04:00",,"LCIS"
10755,254,162,"Ridgeland","32.4773","-80.9264","-05:00",507,"RIDG"
18198,254,138,"Haviland","37.5596","-99.1586","-06:00",678,"HAVI"
25325,254,152,"Elwood","39.5764","-74.7173","-05:00",504,"ELWO"
38405,254,143,"Sterling","42.441","-71.7743","-05:00",506,"STER"
12038,43,43,"Duncan","48.783","-123.7","-08:00",,"DUNC"
33395,254,137,"Newell","42.6476","-94.9742","-06:00",624,"NEWE"
36752,254,143,"Sagamore Beach","41.8005","-70.5312","-05:00",506,"SBEA"
16308,254,157,"Sandyville","40.6453","-81.3662","-05:00",510,"SANY"
19920,254,144,"Auburn","43.6321","-84.0954","-05:00",513,"AUBU"
31622,254,165,"Maysfield","30.8965","-96.8506","-06:00",625,"MAYS"
5213,68,1528,"Comendador","18.878","-71.703","-04:00",,"COME"
11008,254,165,"Childress","34.4383","-100.198","-06:00",634,"CHID"
15998,254,126,"Emigrant Gap","39.2535","-120.634","-08:00",862,"EGAP"
38701,254,165,"Sumner","33.7722","-95.7162","-06:00",623,"SUMN"
40967,254,144,"Whitehall","43.3852","-86.3162","-05:00",563,"WHIT"
31340,254,157,"Marengo","40.3959","-82.8004","-05:00",535,"MARG"
4225,122,2329,"Kisarazu","35.383","139.917","+09:00",,"KISA"
39788,254,165,"Van Alstyne","33.437","-96.5164","-06:00",657,"VALS"
10800,254,163,"Ipswich","45.4188","-99.0275","-06:00",725,"IPSW"
27350,254,167,"Greenville","38.0039","-79.1469","-05:00",569,"GREN"
39389,254,147,"Trimble","39.5039","-94.5556","-06:00",616,"TRIM"
12031,254,160,"East Freedom","40.3258","-78.4531","-05:00",574,"EFRE"
23045,254,132,"Clyo","32.5177","-81.3165","-05:00",507,"CLYO"
26632,254,157,"Geneva","41.7762","-80.9544","-05:00",510,"GENE"
11969,254,166,"West Jordan","40.6053","-111.99","-07:00",770,"WJOR"
13465,65,1494,"Brønderslev","57.267","9.967","+01:00",,"BRØN"
15414,226,3931,"Teruel","40.35","-1.1","+01:00",,"TERU"
36902,254,156,"Saint Thomas","48.6304","-97.4695","-06:00",724,"STHO"
38227,254,135,"Springerton","38.1658","-88.3782","-06:00",649,"SPRN"
8568,254,138,"Sharon Springs","38.9434","-101.76","-07:00",678,"SSPR"
16776,24,1136,"Belsele","51.15","4.083","+01:00",,"BELS"
19385,254,152,"Alpine","40.9645","-73.924","-05:00",501,"ALPI"
34287,254,136,"Otisco","38.55","-85.6568","-05:00",529,"OTIS"
616,254,145,"Redwood Falls","44.4995","-95.1064","-06:00",613,"RFAL"
25666,254,138,"Fairview","39.8487","-95.7044","-06:00",605,"FAIR"
31122,254,160,"Mahanoy Plane","40.7945","-76.2422","-05:00",577,"MPLA"
28419,254,149,"Holstein","40.4373","-98.6671","-06:00",722,"HOLS"
36268,254,160,"Roaring Spring","40.3282","-78.3835","-05:00",574,"RSPR"
27393,254,171,"Greybull","44.5407","-108.323","-07:00",756,"GREY"
37365,254,136,"Selma","40.15","-85.2628","-05:00",527,"SELM"
37462,254,162,"Sharon","34.8879","-81.3801","-05:00",517,"SHAR"
13554,33,24,"Pirassununga","-21.983","-47.417","-03:00",,"PIRA"
23303,254,162,"Conestee","34.7683","-82.3503","-05:00",567,"CONE"
27387,254,170,"Gresham","44.8589","-88.7883","-06:00",658,"GRES"
22574,254,145,"Chatfield","43.8233","-92.1103","-06:00",611,"CHAT"
17996,254,147,"Old Monroe","38.9362","-90.7728","-06:00",609,"OMON"
39077,254,170,"Thiensville","43.2173","-87.9347","-06:00",617,"THIE"
40502,254,165,"Weimar","29.6229","-96.7031","-06:00",618,"WEIM"
25836,254,134,"Fernwood","47.1185","-116.371","-08:00",881,"FERN"
10950,254,165,"Abilene","32.4311","-99.753","-06:00",662,"ABIL"
35744,254,153,"Ranchos de Taos","36.2692","-105.543","-07:00",790,"RDTA"
37546,254,145,"Shelly","47.4553","-96.7197","-06:00",724,"SHEL"
6962,254,125,"Magnolia","33.2447","-93.2463","-06:00",612,"MAGN"
32542,254,167,"Montpelier","37.8225","-77.6987","-05:00",556,"MONP"
34769,254,139,"Peoples","37.2896","-84.0535","-05:00",541,"PEOP"
10699,254,160,"Wyalusing","41.7407","-76.2537","-05:00",577,"WYAL"
13837,254,142,"Lothian","38.803","-76.652","-05:00",512,"LOTH"
13949,254,144,"Comstock Park","43.0682","-85.6853","-05:00",563,"CPAR"
5507,120,2381,"Reading","18.45","-77.95","-05:00",,"READ"
18451,254,147,"Bernie","36.683","-90.0139","-06:00",632,"BERN"
34778,254,160,"Pequea","39.9024","-76.3233","-05:00",566,"PEQU"
10931,254,164,"Selmer","35.142","-88.6514","-06:00",640,"SELM"
23681,254,127,"Crook","40.9107","-102.803","-07:00",751,"CROO"
32725,254,122,"Moundville","32.9469","-87.5552","-06:00",630,"MOUN"
25553,254,125,"Evansville","35.8162","-94.4763","-06:00",670,"EVAN"
19861,254,154,"Athens","42.2899","-73.821","-05:00",532,"ATHE"
35166,254,139,"Pleasureville","38.369","-85.0622","-05:00",529,"PLEA"
3780,65,1492,"Odense","55.4","10.383","+01:00",,"ODEN"
8954,254,142,"Oxon Hill","38.8043","-76.9929","-05:00",511,"OHIL"
31101,254,149,"Madrid","40.8518","-101.534","-07:00",722,"MADR"
11677,254,169,"Philippi","39.1784","-80.0893","-05:00",598,"PHIL"
27187,254,151,"Grantham","43.5175","-72.1505","-05:00",523,"GRAN"
15562,254,146,"Southaven","34.9602","-89.9398","-06:00",640,"SOUT"
21659,254,168,"Bucoda","46.7981","-122.869","-08:00",819,"BUCO"
29841,254,136,"Laconia","38.0421","-86.0676","-05:00",529,"LACO"
6588,175,2985,"The Hague","52.083","4.3","+01:00",,"THAG"
12243,254,151,"Peterborough","42.8756","-71.9378","-05:00",506,"PETE"
22743,254,165,"Chriesman","30.5995","-96.7709","-06:00",625,"CHRE"
1227,33,20,"Manáus","-3.113","-60.025","-04:00",,"MANÁ"
6811,254,123,"King Salmon","58.7877","-156.564","-09:00",,"KSAL"
24989,254,124,"Eden","33.0529","-109.858","-07:00",753,"EDEN"
32230,254,160,"Millsboro","39.9878","-79.9956","-05:00",508,"MILO"
37583,254,142,"Sherwood","38.7455","-76.3279","-05:00",512,"SHER"
3830,226,3908,"Tres Cantos","40.6077","-3.7067","+01:00",,"TCAN"
12343,254,158,"Afton","36.651","-94.9303","-06:00",603,"AFTO"
19044,43,37,"Webequie","52.98","-87.35","-05:00",,"WEBE"
39577,254,132,"Tyrone","33.4705","-84.5936","-05:00",524,"TYRO"
7185,254,126,"Encinitas","33.0455","-117.271","-08:00",825,"ENCN"
15519,202,3375,"Galati","45.85","24.967","+02:00",,"GALA"
23211,254,163,"Colton","43.8049","-97.0095","-06:00",725,"COLT"
4551,179,3049,"Posoltega","12.55","-86.983","-06:00",,"POSO"
13968,175,2979,"Sittard","51","5.867","+01:00",,"SITT"
23113,254,145,"Cohasset","47.2371","-93.6985","-06:00",676,"COHA"
19011,113,2181,"Jabalpur","23.167","79.95","+05:50",,"JABA"
14422,254,165,"Eddy","31.3541","-97.3132","-06:00",625,"EDDY"
33389,254,142,"Newcomb","38.7528","-76.1791","-05:00",512,"NEWC"
28872,254,142,"Ingleside","39.1245","-75.8905","-05:00",512,"INGL"
36720,254,122,"Ryland","34.7699","-86.4809","-06:00",691,"RYLA"
40695,254,160,"West Middlesex","41.1684","-80.4546","-05:00",536,"WMID"
8267,254,135,"Marshall","39.4361","-87.7043","-06:00",581,"MARH"
16094,33,32,"Santa Cruz do Sul","-29.717","-52.433","-03:00",,"SCDS"
28345,254,145,"Hokah","43.7244","-91.3434","-06:00",702,"HOKA"
30094,254,165,"Larue","32.1433","-95.643","-06:00",623,"LARU"
11745,254,132,"Rochelle","31.9379","-83.4274","-05:00",503,"ROCH"
39718,254,138,"Utica","38.6268","-100.141","-06:00",678,"UTIC"
6048,33,11,"Barreiras","-12.14","-45","-03:00",,"BARR"
9711,254,156,"Cando","48.4575","-99.1015","-06:00",724,"CAND"
6876,254,122,"Heflin","33.6126","-85.6035","-06:00",524,"HEFL"
8937,254,142,"Glen Burnie","39.1626","-76.612","-05:00",512,"GBUR"
18445,254,155,"Dunn","35.3147","-78.6151","-05:00",560,"DUNN"
27307,254,137,"Greene","42.9285","-92.7279","-06:00",637,"GREE"
38223,254,160,"Springdale","40.5496","-79.7839","-05:00",508,"SPRG"
19832,254,151,"Ashuelot","42.8112","-72.4431","-05:00",506,"ASHU"
28054,254,144,"Hemlock","43.422","-84.2287","-05:00",513,"HEML"
8215,254,135,"East Moline","41.5228","-90.3951","-06:00",682,"EMOL"
16222,254,160,"Mahanoy City","40.8128","-76.1382","-05:00",577,"MCIT"
16665,43,42,"Dalhousie","48.067","-66.367","-04:00",,"DALH"
7801,254,131,"Ruskin","27.7115","-82.4202","-05:00",539,"RUSK"
33400,254,140,"Newellton","32.1015","-91.2929","-06:00",628,"NEWE"
4085,119,2242,"Ferrara","44.833","11.583","+01:00",,"FERR"
23647,254,155,"Creston","36.4481","-81.6486","-05:00",517,"CRET"
41496,254,171,"Wright","43.8334","-105.578","-07:00",751,"WRIG"
32069,254,128,"Middlefield","41.5109","-72.7149","-05:00",533,"MIDE"
37821,254,139,"Smilax","37.165","-83.261","-05:00",531,"SMIA"
11190,254,165,"Paducah","34.0747","-100.279","-06:00",634,"PADU"
29310,254,160,"Kane","41.6807","-78.6908","-05:00",514,"KANE"
30040,254,158,"Lane","34.2716","-95.9429","-06:00",657,"LANE"
35980,254,160,"Reno","41.4254","-79.7374","-05:00",508,"RENZ"
28513,254,143,"Hopedale","42.1252","-71.5349","-05:00",506,"HOPE"
31211,254,131,"Mango","27.9798","-82.3085","-05:00",539,"MANG"
33168,254,160,"New Bethlehem","41.0209","-79.3741","-05:00",508,"NBET"
29804,254,137,"La Porte City","42.3312","-92.2426","-06:00",637,"LPCI"
32221,254,122,"Millport","33.5494","-88.1933","-06:00",673,"MILP"
39208,254,147,"Tipton","38.6448","-92.7853","-06:00",604,"TIPT"
24200,254,150,"Denio","41.5215","-118.962","-08:00",811,"DENI"
33275,254,122,"New Market","34.9151","-86.4085","-06:00",691,"NMAR"
14440,226,3933,"Cuenca","40.067","-2.133","+01:00",,"CUEN"
32842,254,154,"Mountain Dale","41.6845","-74.5376","-05:00",501,"MDAL"
5704,259,4536,"Punta Cardon","11.658","-70.215","-04:00",,"PCAR"
7926,254,132,"Jonesboro","33.5124","-84.3502","-05:00",524,"JONE"
26862,254,150,"Glenbrook","39.0813","-119.898","-08:00",811,"GLEN"
20264,254,135,"Batchtown","39.0922","-90.6653","-06:00",609,"BATC"
41140,254,124,"Willow Beach","35.1895","-114.052","-07:00",753,"WBEA"
29499,254,158,"Ketchum","36.5248","-95.0256","-06:00",671,"KETC"
35832,254,148,"Raymond","48.958","-104.646","-07:00",687,"RAYM"
39191,254,147,"Tina","39.5716","-93.4778","-06:00",616,"TINA"
31010,254,137,"Lynnville","41.557","-92.7876","-06:00",679,"LYNN"
9128,254,144,"Reed City","43.9034","-85.5104","-05:00",540,"RCIY"
16985,254,155,"Denton","35.6015","-80.0858","-05:00",518,"DENT"
27744,254,160,"Harleigh","40.9807","-75.9719","-05:00",577,"HARE"
7904,254,132,"Georgetown","31.8974","-85.0028","-05:00",522,"GEOR"
24334,254,160,"Dilliner","39.7563","-79.994","-05:00",508,"DILI"
39545,254,151,"Twin Mountain","44.2631","-71.5464","-05:00",500,"TMOU"
6751,17,1149,"Colonel Hill","22.767","-74.217","-05:00",,"CHIL"
19479,254,149,"Amelia","42.1751","-99.0596","-06:00",722,"AMEL"
6972,254,125,"Mountain Home","36.314","-92.3832","-06:00",619,"MHOM"
12775,254,123,"Elmendorf Afb","61.2646","-149.805","-09:00",743,"EAFZ"
32025,254,126,"Mi Wuk Village","38.0759","-120.162","-08:00",862,"MWVI"
32878,254,134,"Moyie Springs","48.8581","-116.165","-08:00",881,"MSPR"
42236,48,1370,"Ovalle","-30.598","-71.2","-04:00",,"OVAL"
28678,254,126,"Hume","36.785","-118.913","-08:00",866,"HUME"
32431,254,137,"Mondamin","41.6956","-96.0141","-06:00",652,"MOND"
39072,254,172,"Thetford","43.8199","-72.2264","-05:00",523,"THET"
32408,254,169,"Mohawk","37.4969","-81.8972","-05:00",559,"MOHA"
34043,254,144,"Old Mission","44.9622","-85.4853","-05:00",540,"OMIS"
36793,254,144,"Saint Clair","42.858","-82.5493","-05:00",505,"SCLA"
3764,91,1918,"Wesel","51.667","6.617","+01:00",,"WESE"
13577,24,1136,"Merelbeke","51","3.75","+01:00",,"MERE"
28015,254,165,"Hedley","34.8623","-100.679","-06:00",634,"HEDL"
4767,203,3577,"Zelenograd","56.001","37.209","+03:00",,"ZELE"
38460,254,156,"Stirum","46.2394","-97.6323","-06:00",724,"STIR"
13309,254,133,"Waimea","22.0737","-159.698","-10:00",744,"WAIM"
35076,254,142,"Pittsville","38.3522","-75.4058","-05:00",576,"PITT"
36287,254,147,"Robertsville","38.3616","-90.8187","-06:00",609,"ROBE"
20699,254,157,"Bettsville","41.2452","-83.2321","-05:00",547,"BETT"
31576,254,167,"Max Meadows","36.9453","-80.9266","-05:00",573,"MMEA"
8230,254,135,"Franklin Park","41.938","-87.883","-06:00",602,"FPAK"
11514,254,168,"Pasco","46.3439","-118.959","-08:00",810,"PASC"
30446,254,132,"Lilly","32.1462","-83.8764","-05:00",503,"LILL"
35441,254,170,"Powers Lake","42.5537","-88.2946","-06:00",617,"PLAZ"
6137,49,1339,"Fuding","27.327","120.212","+08:00",,"FUDI"
13215,195,3412,"Tuguegarao City","17.617","121.733","+08:00",,"TCIT"
41068,254,165,"Wildorado","35.1753","-102.254","-06:00",634,"WILD"
23959,254,154,"Darien Center","42.8887","-78.3797","-05:00",514,"DCEN"
13797,254,165,"Leming","29.0728","-98.4836","-06:00",641,"LEMI"
34677,254,135,"Pecatonica","42.3108","-89.346","-06:00",610,"PECA"
34984,254,155,"Pine Level","35.5075","-78.2469","-05:00",560,"PLEV"
9234,254,145,"Luverne","43.692","-96.2879","-06:00",725,"LUVE"
27348,254,161,"Greenville","41.8792","-71.5604","-05:00",521,"GREE"
20458,254,122,"Belk","33.6527","-87.9261","-06:00",630,"BELK"
22085,254,123,"Cantwell","63.1941","-148.679","-09:00",745,"CANT"
37406,254,167,"Severn","37.2943","-76.4156","-05:00",544,"SEVE"
29173,254,135,"Jewett","39.2041","-88.2529","-06:00",648,"JEWE"
17753,254,144,"Kinde","43.9533","-82.9856","-05:00",513,"KIND"
18578,253,5392,"Kidsgrove","53.087","-2.246","+00:00",,"KIDS"
20331,254,157,"Beachwood","41.4698","-81.5121","-05:00",510,"BEAC"
4268,122,2347,"Muko","34.933","135.7","+09:00",,"MUKO"
6874,254,122,"Hartford","31.0743","-85.7353","-06:00",606,"HARF"
11924,18,1094,"Isa Town","26.174","50.548","+03:00",,"ITOW"
24927,254,143,"Eastham","41.8433","-69.9805","-05:00",506,"EAST"
29612,254,166,"Kingston","38.2855","-112.065","-07:00",770,"KING"
3913,82,1806,"Nancy","48.683","6.2","+01:00",,"NANC"
19270,254,147,"Aldrich","37.504","-93.561","-06:00",619,"ALDR"
39226,254,146,"Toccopola","34.2553","-89.2367","-06:00",640,"TOCC"
4631,195,3533,"Bacolod","17.167","121.85","+08:00",,"BACO"
10964,254,165,"Atlanta","33.0888","-94.1627","-06:00",612,"ATLA"
32937,254,132,"Murrayville","34.4397","-83.8963","-05:00",524,"MURR"
27533,254,156,"Hague","46.0641","-99.941","-06:00",687,"HAGU"
40845,254,126,"Westport","39.6631","-123.734","-08:00",807,"WESP"
30684,254,138,"Logan","39.6371","-99.5322","-06:00",722,"LOGA"
39230,254,142,"Toddville","38.2768","-76.0622","-05:00",512,"TODD"
7784,254,131,"Panama City","30.172","-85.6441","-06:00",656,"PCIT"
9132,254,144,"Roscommon","44.5111","-84.6042","-05:00",540,"ROSC"
23409,254,154,"Corbettsville","42.0156","-75.7906","-05:00",502,"CORB"
18083,43,36,"Crowsnest Pass","49.605","-114.43","-07:00",,"CPAS"
22049,254,139,"Cane Valley","37.1806","-85.3198","-06:00",736,"CVAL"
30071,254,138,"Lansing","39.2336","-94.8915","-06:00",616,"LANS"
13287,253,5392,"Wolverhampton","52.584","-2.125","+00:00",,"WOLV"
39835,254,162,"Varnville","32.8294","-80.9978","-05:00",507,"VARN"
6180,49,586,"Jian","0","0","+08:00",,"JIAZ"
38259,254,136,"Spurgeon","38.2557","-87.2573","-05:00",649,"SPUR"
13063,65,1501,"Ribe","55.35","8.767","+01:00",,"RIBE"
6779,259,4542,"Margarita","6.317","-61.367","-04:00",,"MARG"
19908,254,164,"Atwood","35.9638","-88.5995","-06:00",639,"ATWO"
25476,254,152,"Essex Fells","40.8269","-74.2797","-05:00",501,"EFEL"
37359,254,154,"Selkirk","42.5455","-73.8296","-05:00",532,"SELK"
5082,48,1371,"Cerrillos","-34.383","-70.8","-04:00",,"CERR"
5976,1,835,"Kabul","34.517","69.183","+04:50",,"KABU"
7734,254,131,"Jay","30.8872","-87.1225","-06:00",686,"JAY"
18014,43,36,"Fort Saskatchewan","53.717","-113.2","-07:00",,"FSAS"
31811,254,169,"Meadowbrook","39.3318","-80.3256","-05:00",598,"MEAO"
42151,143,2548,"Vabalninkas","55.99","24.74","+02:00",,"VABA"
20069,254,170,"Baileys Harbor","45.0752","-87.1444","-06:00",658,"BHAR"
14611,254,131,"Land O Lakes","28.2463","-82.453","-05:00",539,"LOLA"
36709,254,137,"Ryan","42.3399","-91.4806","-06:00",637,"RYAN"
41723,91,1913,"Mainburg","48.65","11.783","+01:00",,"MAIN"
22626,254,154,"Cherry Creek","42.3138","-79.1312","-05:00",514,"CCRK"
28950,254,160,"Irvona","40.8297","-78.5663","-05:00",574,"IRVO"
36567,254,160,"Rouseville","41.4696","-79.6823","-05:00",508,"ROUS"
6300,49,1349,"Siping","26.9","107.883","+08:00",,"SIPI"
21098,254,139,"Bonnieville","37.3776","-85.8734","-06:00",736,"BONN"
21799,254,165,"Burton","30.1727","-96.6107","-06:00",618,"BURT"
25559,254,125,"Evening Shade","36.0922","-91.5773","-06:00",734,"ESHA"
31250,254,147,"Mansfield","37.1559","-92.6037","-06:00",619,"MANS"
31454,254,158,"Martha","34.7239","-99.3848","-06:00",627,"MART"
7619,254,128,"Lebanon","41.6313","-72.24","-05:00",533,"LEBA"
7909,254,132,"Griffin","33.2597","-84.2616","-05:00",524,"GRIF"
9075,254,144,"Hillsdale","41.8825","-84.6162","-05:00",551,"HILL"
11467,254,167,"Wytheville","36.9511","-81.112","-05:00",573,"WYTH"
22899,254,122,"Clayton","31.9192","-85.4511","-06:00",522,"CLAY"
16006,254,126,"Lotus","38.8298","-120.923","-08:00",862,"LOTU"
27899,254,166,"Hatch","37.6501","-112.434","-07:00",770,"HATC"
22941,254,137,"Clemons","42.134","-93.1411","-06:00",679,"CLEM"
29682,254,126,"Kneeland","40.641","-123.869","-08:00",802,"KNEE"
30309,254,134,"Lenore","46.5777","-116.397","-08:00",881,"LENO"
25573,254,152,"Ewan","39.6987","-75.1864","-05:00",504,"EWAN"
38578,254,156,"Streeter","46.718","-99.2593","-06:00",724,"STRE"
19933,254,135,"Augusta","40.2366","-90.9703","-06:00",717,"AUGU"
25928,254,136,"Flat Rock","39.3938","-85.6864","-05:00",527,"FROC"
25936,254,140,"Flatwoods","31.408","-92.8831","-06:00",644,"FLAT"
21690,254,135,"Buffalo Prairie","41.3389","-90.8548","-06:00",682,"BPRA"
33844,254,145,"Oak Park","45.7164","-93.8075","-06:00",613,"OPAR"
40572,254,124,"Wenden","33.8204","-113.54","-07:00",753,"WEND"
39767,254,169,"Valley Fork","38.4856","-81.1526","-05:00",564,"VFOR"
24214,254,145,"Dennison","44.3996","-92.9847","-06:00",613,"DENN"
31330,254,154,"Marcellus","42.9723","-76.3331","-05:00",555,"MARU"
37364,254,137,"Selma","40.8736","-92.1109","-06:00",631,"SELM"
15642,175,2981,"Julianadorp","52.9","4.75","+01:00",,"JULI"
19809,254,169,"Ashford","38.1894","-81.7138","-05:00",564,"ASHF"
21361,254,152,"Bridgeport","39.805","-75.3409","-05:00",504,"BRIP"
31708,254,126,"Mc Farland","35.638","-119.198","-08:00",800,"MFAR"
38087,254,139,"South Williamson","37.6621","-82.2917","-05:00",564,"SWIL"
4774,233,4009,"Hammenhög","55.5","14.15","+01:00",,"HAMM"
18632,254,144,"Milan","42.0828","-83.683","-05:00",505,"MILA"
23321,254,155,"Connelly Springs","35.6588","-81.5286","-05:00",517,"CSPR"
5298,68,1531,"Pepillo Salcedo","19.701","-71.753","-04:00",,"PSAL"
6550,159,2887,"Ciudad Acuna","29.3","-100.917","-06:00",,"CACU"
16737,163,2702,"Tiraspol","46.84","29.643","+02:00",,"TIRA"
35858,254,170,"Readstown","43.4583","-90.7686","-06:00",702,"READ"
41191,254,122,"Wilton","33.0788","-86.8819","-06:00",630,"WILT"
16872,254,126,"Winton","37.421","-120.591","-08:00",866,"WINT"
21083,254,137,"Bondurant","41.7263","-93.4597","-06:00",679,"BOND"
23112,254,143,"Cohasset","42.2362","-70.8195","-05:00",506,"COHA"
12181,175,2984,"Terneuzen","51.333","3.833","+01:00",,"TERN"
20396,254,165,"Beckville","32.2533","-94.4616","-06:00",612,"BECK"
14051,253,5391,"Stanmore","51.512","-1.315","+00:00",,"STAN"
35422,254,171,"Powder River","43.0323","-106.987","-07:00",767,"PRIV"
35638,254,137,"Quasqueton","42.3848","-91.7924","-06:00",637,"QUAS"
22055,254,153,"Canjilon","36.4754","-106.439","-07:00",790,"CANJ"
33665,254,136,"North Judson","41.2283","-86.6584","-06:00",588,"NJUD"
36278,254,155,"Robersonville","35.8128","-77.2709","-05:00",545,"ROBE"
21062,254,155,"Bolivia","34.0134","-78.1689","-05:00",550,"BOLI"
26427,254,122,"Fultondale","33.606","-86.8244","-06:00",630,"FULT"
27503,254,138,"Gypsum","38.6868","-97.4052","-06:00",678,"GYPS"
18698,254,137,"Pella","41.4226","-92.9246","-06:00",679,"PELL"
22944,254,158,"Cleo Springs","36.42","-98.4638","-06:00",650,"CSPR"
40562,254,124,"Wellton","32.9672","-114.211","-07:00",771,"WELL"
6580,175,2981,"Amsterdam","52.35","4.917","+01:00",,"AMST"
8182,254,135,"Burbank","41.7444","-87.7685","-06:00",602,"BURB"
10864,254,164,"Covington","35.5637","-89.6247","-06:00",640,"COVI"
33605,254,157,"North Bloomfield","41.4555","-80.829","-05:00",536,"NBLM"
33622,254,154,"North Chatham","42.4718","-73.6325","-05:00",532,"NCHA"
19485,254,149,"Ames","41.465","-96.6568","-06:00",652,"AMES"
23263,254,127,"Como","39.2226","-105.785","-07:00",751,"COMO"
32403,254,127,"Moffat","37.9777","-105.78","-07:00",751,"MOFF"
35678,254,132,"Rabun Gap","34.9571","-83.3915","-05:00",524,"RGAP"
39039,254,134,"Teton","43.8985","-111.652","-07:00",758,"TETN"
9112,254,144,"Muskegon","43.2296","-86.2251","-05:00",563,"MUSK"
10180,254,154,"New City","41.156","-73.9936","-05:00",501,"NCIT"
10763,254,162,"Summerville","32.9992","-80.211","-05:00",519,"SUMM"
5223,68,1539,"El Guayabal","18.55","-69.55","-04:00",,"EGUA"
5360,70,1549,"Puerto Baquerizo Moreno","-0.9","-89.6","-05:00",,"PBMO"
13826,254,155,"Weaverville","35.7234","-82.5239","-05:00",567,"WEAV"
30365,254,163,"Lesterville","43.074","-97.5462","-06:00",725,"LEST"
31880,254,167,"Melfa","37.6397","-75.7463","-05:00",544,"MELF"
14695,254,165,"Joshua","32.4505","-97.4215","-06:00",623,"JOSH"
23493,254,125,"Cotton Plant","35.03","-91.2263","-06:00",693,"CPLA"
28670,254,170,"Humbird","44.5434","-90.8728","-06:00",702,"HUMB"
39514,254,170,"Turtle Lake","45.4484","-92.2038","-06:00",613,"TLAZ"
7271,254,126,"Lompoc","34.6536","-120.46","-08:00",855,"LOMP"
15099,175,2981,"Laren","52.25","5.233","+01:00",,"LARE"
15158,178,4706,"North Shore","-36.8","174.75","+12:00",,"NSHO"
3794,70,1565,"Santo Domingo De Los Colorados","-0.25","-79.15","-05:00",,"SDDL"
3757,91,1912,"Trossingen","48.067","8.65","+01:00",,"TROS"
11597,254,170,"New London","44.4091","-88.7645","-06:00",658,"NLON"
28724,254,147,"Huntsville","39.4578","-92.5864","-06:00",604,"HUNT"
10868,254,164,"Dickson","36.0797","-87.4114","-06:00",659,"DICK"
5226,68,1522,"El Pino","18.3","-70.267","-04:00",,"EPIN"
30306,254,164,"Lenoir City","35.8207","-84.2737","-05:00",557,"LCIT"
36260,254,140,"Roanoke","30.3433","-92.7341","-06:00",642,"ROAN"
6395,64,5129,"Ostrava","49.833","18.283","+01:00",,"OSTR"
29608,254,144,"Kingston","43.4073","-83.1717","-05:00",513,"KINT"
24948,254,168,"Eastsound","48.6458","-122.942","-08:00",819,"EASS"
18882,134,2443,"Jahra","29.338","47.658","+03:00",,"JAHR"
28098,254,125,"Hensley","34.5559","-92.1911","-06:00",693,"HENS"
39756,254,122,"Valley","32.7815","-85.171","-06:00",522,"VALE"
3866,82,1808,"Cambrai","50.167","3.233","+01:00",,"CAMB"
23988,254,155,"Davidson","35.4822","-80.8049","-05:00",517,"DAVI"
26901,254,134,"Glenns Ferry","43.1311","-115.303","-07:00",757,"GFER"
37459,254,146,"Sharon","32.6583","-89.9362","-06:00",718,"SHAR"
40454,254,135,"Wayne City","38.3069","-88.55","-06:00",649,"WCIT"
41779,153,690,"Peel","54.226","-4.693","+00:00",,"PEEL"
12290,254,166,"Pleasant Grove","40.3798","-111.742","-07:00",770,"PGRO"
19271,254,123,"Aleknagik","59.2844","-158.598","-09:00",,"ALEK"
27063,254,136,"Gosport","39.3406","-86.657","-05:00",527,"GOSP"
3493,234,4029,"Bern","46.917","7.467","+01:00",,"BERN"
15566,254,155,"Buxton","35.2677","-75.5426","-05:00",544,"BUXT"
20853,254,139,"Blackey","37.1354","-82.9333","-05:00",531,"BLAC"
38776,254,146,"Swan Lake","33.8758","-90.2833","-06:00",647,"SLAK"
40542,254,150,"Wellington","38.7596","-119.341","-08:00",811,"WELI"
11855,43,37,"Port Hope","43.95","-78.3","-05:00",,"PHOP"
19932,254,160,"Audubon","40.1215","-75.3405","-05:00",504,"AUDU"
22715,254,141,"China","44.4788","-69.5176","-05:00",500,"CHIN"
11810,254,135,"Savoy","40.0399","-88.2643","-06:00",648,"SAVO"
34937,254,144,"Pierson","43.3341","-85.4853","-05:00",563,"PIER"
33749,254,144,"Northport","45.1138","-85.6214","-05:00",540,"NORH"
20051,254,126,"Badger","36.6315","-119.012","-08:00",866,"BADG"
29937,254,124,"Lake Montezuma","34.6323","-111.778","-07:00",753,"LMON"
41147,254,149,"Willow Island","40.8886","-100.072","-06:00",722,"WISL"
8265,254,135,"Marion","37.7041","-88.9226","-06:00",632,"MARI"
26682,254,169,"Gerrardstown","39.3791","-78.1131","-05:00",511,"GERR"
28773,254,160,"Hydetown","41.6525","-79.7272","-05:00",516,"HYDT"
14393,119,2239,"Genzano Di Lucania","40.85","16.033","+01:00",,"GDLU"
18250,233,4007,"Fagersta","60","15.783","+01:00",,"FAGE"
5964,43,815,"Burwash","61.35","-139","-08:00",,"BURW"
8917,254,142,"Chesapeake Bay","38.686","-76.535","-05:00",511,"CBAZ"
35956,254,143,"Rehoboth","41.844","-71.246","-05:00",521,"REHO"
30234,254,139,"Lee City","37.7318","-83.3238","-05:00",541,"LCIT"
40763,254,162,"West Union","34.7514","-83.04","-05:00",567,"WUNI"
13812,253,5392,"Bury","52.434","-0.11","+00:00",,"BURY"
24920,254,154,"East Worcester","42.6056","-74.6658","-05:00",526,"EWOR"
26237,254,164,"Frankewing","35.1717","-86.7746","-06:00",659,"FRAK"
7602,254,128,"Berlin","41.611","-72.7774","-05:00",533,"BERL"
9390,254,147,"Milan","40.1663","-93.1629","-06:00",631,"MILA"
21585,254,149,"Bruning","40.3216","-97.5616","-06:00",722,"BRUI"
29144,254,160,"Jermyn","41.535","-75.5334","-05:00",577,"JERM"
35262,254,147,"Pomona","36.8447","-91.9185","-06:00",619,"POMO"
20329,254,160,"Beach Haven","41.0683","-76.1762","-05:00",577,"BHAV"
28157,254,154,"Hewlett","40.637","-73.6912","-05:00",501,"HEWL"
32198,254,144,"Millersburg","45.412","-84.1131","-05:00",540,"MILE"
1336,14,174,"Canberra","-35.283","149.217","+10:00",,"CANB"
35315,254,167,"Port Haywood","37.3757","-76.2979","-05:00",544,"PHAY"
36194,254,124,"Rio Verde","33.7222","-111.675","-07:00",753,"RVER"
5088,48,1375,"El Arrayan","-33.35","-70.467","-04:00",,"EARR"
7164,254,126,"Davis","38.5542","-121.75","-08:00",862,"DAVI"
12895,254,129,"Dover","39.1562","-75.5375","-05:00",504,"DOVE"
32659,254,164,"Morrison","35.5824","-85.9107","-06:00",659,"MORI"
6271,49,1342,"Qingyuan","38.753","115.489","+08:00",,"QING"
31890,254,137,"Melrose","40.9706","-93.0024","-06:00",679,"MELR"
33334,254,160,"New Stanton","40.2329","-79.6397","-05:00",508,"NSTA"
40285,254,145,"Warsaw","44.2579","-93.3573","-06:00",613,"WARS"
34292,254,149,"Otoe","40.7406","-96.1214","-06:00",652,"OTOE"
36414,254,147,"Rogersville","37.1319","-93.0612","-06:00",619,"ROGE"
40389,254,125,"Watson","33.8911","-91.2569","-06:00",693,"WATS"
4071,119,2241,"Amalfi","40.633","14.6","+01:00",,"AMAL"
13539,254,133,"Makawao","20.8389","-156.318","-10:00",744,"MAKA"
28756,254,160,"Hutchinson","40.2259","-79.732","-05:00",508,"HUTC"
3496,234,4033,"Davos","46.8128","9.8358","+01:00",,"DAVO"
4173,122,2365,"Higashimurayama","35.75","139.467","+09:00",,"HIGA"
28406,254,132,"Holly Springs","34.1739","-84.5007","-05:00",524,"HSPR"
37137,254,145,"Savage","44.7628","-93.362","-06:00",613,"SAVA"
32858,254,133,"Mountain View","19.5387","-155.088","-10:00",744,"MVIE"
16957,118,2233,"Lod","31.951","34.895","+02:00",,"LOD"
26257,254,172,"Franklin","44.9656","-72.8975","-05:00",523,"FRAN"
18125,254,156,"Wishek","46.2334","-99.6522","-06:00",687,"WISH"
21604,254,144,"Brutus","45.5115","-84.7417","-05:00",540,"BRUT"
35209,254,160,"Pocono Pines","41.1161","-75.4653","-05:00",577,"PPIN"
22040,254,157,"Canal Fulton","40.8849","-81.5861","-05:00",510,"CFUL"
41650,254,160,"Zieglerville","40.2761","-75.4823","-05:00",504,"ZIEG"
29972,254,148,"Lakeside","47.9984","-114.281","-07:00",762,"LAKE"
31735,254,160,"Mc Kees Rocks","40.4648","-80.1115","-05:00",508,"MKRO"
35800,254,139,"Raven","37.4055","-82.8232","-05:00",541,"RAVN"
15393,254,157,"Arcanum","39.9886","-84.5328","-05:00",542,"ARCA"
17529,24,1136,"Sint-Niklaas","51.167","4.133","+01:00",,"SINT"
17789,246,4224,"Isparta","37.767","30.55","+02:00",,"ISPA"
25343,254,139,"Emerson","38.3825","-83.2613","-05:00",564,"EMER"
25733,254,147,"Farley","39.2826","-94.8284","-06:00",616,"FARL"
28651,254,147,"Hughesville","38.8574","-93.2065","-06:00",616,"HUGH"
30078,254,136,"Laotto","41.3048","-85.2502","-05:00",509,"LAOT"
42222,254,131,"Coral Gables","25.7","-80.26","-05:00",,"CGAB"
26731,254,154,"Gilbertsville","42.4446","-75.3595","-05:00",526,"GILE"
29731,254,163,"Kranzburg","44.879","-96.9456","-06:00",725,"KRAN"
10646,254,160,"Philadelphia","39.9302","-75.216","-05:00",504,"PHIA"
30481,254,136,"Lincoln City","38.1283","-86.9862","-06:00",649,"LCIT"
41293,254,141,"Winter Harbor","44.3857","-68.0704","-05:00",537,"WHAR"
18647,254,137,"Spirit Lake","43.4265","-95.1547","-06:00",624,"SLAK"
40923,254,145,"White Earth","47.0964","-95.8433","-06:00",724,"WEAR"
5103,48,1375,"Lo Espejo","-33.533","-70.717","-04:00",,"LESP"
15600,81,4879,"Lohja","60.25","24.083","+02:00",,"LOHJ"
19802,254,158,"Asher","34.9731","-96.8461","-06:00",650,"ASHE"
10327,254,157,"Massillon","40.8008","-81.4273","-05:00",510,"MASS"
41268,254,126,"Winnetka","34.2086","-118.575","-08:00",803,"WINN"
33647,254,154,"North Greece","43.2549","-77.733","-05:00",538,"NGRE"
12274,254,135,"Amboy","41.7017","-89.348","-06:00",610,"AMBO"
14476,254,134,"Buhl","42.6472","-114.902","-07:00",760,"BUHL"
32904,254,162,"Mullins","34.1893","-79.2589","-05:00",570,"MULL"
33358,254,135,"New Windsor","41.1953","-90.4924","-06:00",682,"NWIN"
41569,254,126,"Yermo","34.8884","-116.888","-08:00",803,"YERM"
12762,43,37,"Gloucester","45.35","-75.63","-05:00",,"GLOU"
27369,254,165,"Greenwood","33.3809","-97.4743","-06:00",623,"GREN"
29195,254,154,"Johnson","41.3663","-74.5067","-05:00",501,"JOHS"
11296,254,166,"Ephraim","39.3528","-111.543","-07:00",770,"EPHR"
16077,254,170,"Coloma","44.0358","-89.5222","-06:00",658,"COLO"
29749,254,139,"Kuttawa","36.9517","-88.1129","-06:00",632,"KUTT"
37541,254,147,"Shell Knob","36.6422","-93.633","-06:00",619,"SKNO"
4651,195,3416,"Roxas","11.585","122.751","+08:00",,"ROXA"
12526,253,5392,"Bolton","53.572","-2.43","+00:00",,"BOLT"
27750,254,167,"Harman","37.2931","-82.2025","-05:00",531,"HARM"
5788,243,4057,"Toco","10.833","-60.95","-04:00",,"TOCO"
33251,254,164,"New Johnsonville","36.0056","-87.9448","-06:00",659,"NJOH"
41475,254,135,"Worth","41.685","-87.7773","-06:00",602,"WORT"
31015,254,170,"Lynxville","43.3507","-91.1018","-06:00",702,"LYNX"
33841,254,145,"Oak Island","49.3055","-94.8575","-06:00",724,"OISL"
9499,254,146,"Mayersville","32.8187","-91.0296","-06:00",718,"MAYE"
14552,119,2242,"Cattolica","43.967","12.733","+01:00",,"CATT"
38320,254,155,"Stantonsburg","35.5805","-77.8483","-05:00",560,"STAO"
7497,254,126,"Valencia","34.3546","-118.55","-08:00",803,"VALE"
24873,254,154,"East Pharsalia","42.5581","-75.7178","-05:00",502,"EPHA"
25633,254,131,"Fairfield","29.3669","-82.2517","-05:00",534,"FAIR"
9513,254,146,"Picayune","30.5854","-89.6932","-06:00",622,"PICA"
20171,254,147,"Baring","40.2599","-92.2634","-06:00",717,"BARI"
29049,254,172,"Jamaica","43.1008","-72.8076","-05:00",506,"JAMA"
9738,254,156,"Mandan","46.7289","-100.983","-07:00",687,"MAND"
29214,254,126,"Jolon","35.9802","-121.358","-08:00",828,"JOLO"
24852,254,160,"East Mc Keesport","40.3847","-79.8073","-05:00",508,"EMKE"
26538,254,168,"Garfield","46.969","-117.182","-08:00",881,"GARF"
27015,254,160,"Goodville","40.1257","-76.0038","-05:00",566,"GOOD"
3510,48,1372,"Valdivia","-39.8","-73.233","-04:00",,"VALD"
19683,254,139,"Argillite","38.4268","-82.8135","-05:00",564,"ARGI"
26111,254,160,"Fort Hill","39.8674","-79.2475","-05:00",574,"FHIZ"
41244,254,164,"Winfield","36.5356","-84.375","-05:00",557,"WINF"
6076,49,1345,"Altay","47.867","88.117","+08:00",,"ALTA"
28668,254,147,"Humansville","37.7819","-93.5793","-06:00",619,"HUMA"
6359,49,1358,"Yibin","28.767","104.567","+08:00",,"YIBI"
25731,254,135,"Farina","38.8694","-88.7508","-06:00",609,"FARN"
36655,254,154,"Rush","42.9942","-77.6714","-05:00",538,"RUSZ"
35356,254,156,"Portal","48.9466","-102.546","-06:00",687,"PORT"
40843,254,136,"Westpoint","40.3307","-87.0516","-05:00",582,"WESO"
39523,254,165,"Tuscola","32.2011","-99.9159","-06:00",662,"TUSC"
17356,254,165,"Crosby","29.9299","-95.0527","-06:00",618,"CROS"
21538,254,160,"Brownfield","39.8697","-79.7155","-05:00",508,"BROF"
36224,254,126,"Riverdale","36.4391","-119.957","-08:00",866,"RIVD"
23455,254,163,"Corona","45.3641","-96.6682","-06:00",725,"CORO"
30739,254,135,"Long Point","40.9728","-88.8735","-06:00",675,"LPOI"
39623,254,141,"Union","44.2596","-69.2573","-05:00",500,"UNIO"
39944,254,167,"Victoria","36.9694","-78.2712","-05:00",556,"VICT"
5441,120,2382,"Copse","18.383","-77.967","-05:00",,"COPS"
12898,14,5,"Brighton","-35.017","138.517","+09:30",,"BRIG"
25038,254,170,"Edmund","42.9676","-90.2645","-06:00",669,"EDMU"
19838,254,145,"Askov","46.2004","-92.675","-06:00",613,"ASKO"
7827,254,131,"Winter Park","28.6019","-81.3328","-05:00",534,"WPAR"
10166,254,154,"Lindenhurst","40.6894","-73.3745","-05:00",501,"LIND"
21819,254,142,"Butler","39.5354","-76.7286","-05:00",512,"BUTL"
27161,254,144,"Grandville","42.8924","-85.7703","-05:00",563,"GRAN"
19063,254,149,"Abie","41.3508","-96.9656","-06:00",652,"ABIE"
